"Recipient","State","UNITID","EIN","OPEID","IPED_ID","OPEID6","INST_TYPE","LONGITUDE","LATITUDE","COUNTY","Football","Basketball","INSTURL","grants_received","research_grants_received","contracts_received","subsidized17","unsubsidized17","parent17","grad_plus17","grants17","perkins17","FSEOG17","FWS17","Undergrad","Grad","Total","Total_Federal_Investment","Total_Federal_Investment_Per_Student"
"A T Still University of Health Sciences","MO",177834,430356250,247700,NA,NA,"Private not-for-profit, 4-year or above",-92.589183,40.193648,"Adair County",NA,NA,NA,1329994,384317,1083243.06,0,78158709,0,70298465,NA,NA,NA,NA,"NULL","3357",3357,151254728.06,45056.5171462615
"Aaniiih Nakoda College","MT",180203,810420980,2517500,2517500,25175,"Public, 2-year",-108.757816,48.484196,"Blaine County",NA,NA,"www.ancollege.edu",2174050,3818072.59,0,NA,NA,NA,NA,505188.46,NA,6677,8669,"291","NULL",291,6512657.05,22380.2647766323
"Abilene Christian University","TX",222178,750851900,353700,353700,3537,"Private not-for-profit, 4-year or above",-99.70954,32.46915,"Taylor County","Southland Conference","Southland Conference","www.acu.edu",549443,912392,0,6931378,21382778,4889525,1810465,4202325,218353,237851,541107,"3650","784",4434,41675617,9399.10171402797
"Abraham Baldwin Agricultural College","GA",138558,586002072,154100,154100,1541,"Public, 4-year or above",-83.528281,31.481889,"Tift County",NA,NA,"www.abac.edu",1515288,0,0,3987610,4657708,1006689,0,5999743.47,NA,103500,253948,"3458","NULL",3458,17524486.47,5067.8098525159
"Academy for Five Element Acupuncture","FL",451079,650621012,4133500,NA,NA,"Private not-for-profit, 4-year or above",-82.321994,29.650075,"Alachua County",NA,NA,NA,0,0,0,0,874709,0,151610,NA,NA,NA,NA,"NULL","57",57,1026319,18005.5964912281
"Academy for Jewish Religion-California","CA",457271,680493819,4155500,NA,NA,"Private not-for-profit, 4-year or above",-118.293261,34.06089,"Los Angeles County",NA,NA,NA,0,0,0,0,278134,0,0,NA,NA,NA,NA,"NULL","64",64,278134,4345.84375
"Academy for Nursing and Health Occupations","FL",412173,592757346,3346300,NA,NA,"Private not-for-profit, 2-year",-80.121497,26.70653,"Palm Beach County",NA,NA,NA,0,0,0,1242839,1470261,148238,0,1338756.57,NA,NA,NA,"819","NULL",819,4200094.57,5128.3205982906
"Academy of Chinese Culture and Health Sciences","CA",108269,942881684,3288300,NA,NA,"Private not-for-profit, 4-year or above",-122.272733,37.806662,"Alameda County",NA,NA,NA,0,0,0,0,1032113,0,612055,NA,NA,NA,24061,"NULL","136",136,1668229,12266.3897058824
"Academy of Interactive Entertainment","LA",487658,272990527,4248400,NA,NA,"Private not-for-profit, less-than 2-year",-92.043361,30.22001,"Lafayette Parish",NA,NA,NA,0,0,0,161000,170853,204472,0,172487.95,NA,NA,NA,"40","NULL",40,708812.95,17720.32375
"Academy of Interactive Entertainment","WA",482185,273792158,4223600,NA,NA,"Private not-for-profit, less-than 2-year",-122.351158,47.621224,"King County",NA,NA,NA,0,0,0,319785,349246,299953,0,256497.67,NA,6811,NA,"76","NULL",76,1232292.67,16214.3772368421
"Academy of Vocal Arts","PA",210508,231352001,3353300,NA,NA,"Private not-for-profit, 4-year or above",-75.173683,39.947863,"Philadelphia County",NA,NA,NA,0,0,0,0,15036,0,0,NA,NA,NA,NA,"NULL","28",28,15036,537
"Acupuncture and Integrative Medicine College-Berkeley","CA",384306,943111522,3327400,NA,NA,"Private not-for-profit, 4-year or above",-122.267636,37.862754,"Alameda County",NA,NA,NA,0,0,0,0,1255833,0,248960,NA,NA,NA,58726,"NULL","105",105,1563519,14890.6571428571
"Adams State University","CO",126182,846000542,134500,134500,1345,"Public, 4-year or above",-105.879642,37.473636,"Alamosa County","Rocky Mountain Athletic Conference","Rocky Mountain Athletic Conference","www.adams.edu",3038257,484714,0,3701030,15240036,2157753,258627,4444126.97,45290,145580,289320,"2156","1294",3450,29804733.97,8639.05332463768
"Adelphi University","NY",188429,111630741,266600,266600,2666,"Private not-for-profit, 4-year or above",-73.653321,40.721439,"Nassau County",NA,"Northeast 10 Conference","www.adelphi.edu/",1404386,332412,0,11751540,39303722,16272129,10659141,7569763,874020,651620,815776,"5071","2404",7475,89634509,11991.2386622074
"Adirondack Community College","NY",188438,146013244,286000,286000,2860,"Public, 2-year",-73.655014,43.353441,"Warren County",NA,NA,"WWW.SUNYACC.EDU",527875,0,0,3584043,3994134,518478,0,5659243.56,NA,77969,85078,"4247","NULL",4247,14446820.56,3401.65306333883
"Adler Graduate School","MN",374024,410970173,3051900,NA,NA,"Private not-for-profit, 4-year or above",-93.252532,44.862865,"Hennepin County",NA,NA,NA,0,0,0,0,3798462,0,93475,NA,NA,NA,NA,"NULL","311",311,3891937,12514.2668810289
"Adler University","IL",142832,362515281,2068100,NA,NA,"Private not-for-profit, 4-year or above",-87.629131,41.88253,"Cook County",NA,NA,NA,236266,0,41470,NA,NA,NA,NA,NA,NA,NA,348589,"NULL","988",988,626325,633.932186234818
"Adler University","IL",142832,362515281,2068100,NA,NA,"Private not-for-profit, 4-year or above",-87.629131,41.88253,"Cook County",NA,NA,NA,236266,0,41470,0,20111492,0,17384870,NA,NA,NA,348589,"NULL","988",988,38122687,38585.7155870445
"Adrian College","MI",168528,381357980,223400,223400,2234,"Private not-for-profit, 4-year or above",-84.059947,41.898449,"Lenawee County","Michigan Intercollegiate Athletic Assoc","Michigan Intercollegiate Athletic Assoc","www.adrian.edu",300629,0,0,4577066,4699730,5907343,0,2432012,488930,178792,404318,"1619","28",1647,18988820,11529.3381906497
"Adult and Community Education-Hudson","OH",203030,316400416,812900,NA,NA,"Public, less-than 2-year",-82.980603,40.012851,"Franklin County",NA,NA,NA,0,0,0,408045,629030,32581,0,381165.86,NA,NA,NA,"236","NULL",236,1450821.86,6147.55025423729
"Adult and Continuing Education-BCTS","NJ",183983,226002432,2312000,NA,NA,"Public, less-than 2-year",-74.033997,40.901784,"Bergen County",NA,NA,NA,0,0,0,80841,75765,0,0,163845,NA,NA,NA,"121","NULL",121,320451,2648.35537190083
"Advanced Technical Centers","FL",383172,591849595,2293600,NA,NA,"Private not-for-profit, less-than 2-year",-80.2871,25.806645,"Miami-Dade County",NA,NA,NA,0,0,0,NA,NA,NA,NA,51495,NA,NA,NA,"44","NULL",44,51495,1170.34090909091
"Adventist University of Health Sciences","FL",133872,593069793,3115500,3115500,31155,"Private not-for-profit, 4-year or above",-81.367687,28.576142,"Orange County",NA,NA,"www.adu.edu",26821,0,0,2819632,7386412,457456,4451547,1666994,NA,109300,NA,"1950","178",2128,16918162,7950.26409774436
"Agnes Scott College","GA",138600,580566116,154200,NA,NA,"Private not-for-profit, 4-year or above",-84.295459,33.769268,"Dekalb County",NA,"USA South Athletic Conference",NA,0,0,0,2036842,1706294,2267660,0,1711357,NA,93421,452807,"873","NULL",873,8268381,9471.22680412371
"Aiken Technical College","SC",217615,570523399,1005600,1005600,10056,"Public, 2-year",-81.842423,33.533633,"Aiken County",NA,NA,"www.atc.edu",0,0,0,1392611,1921255,0,0,4703386.86,NA,124357,65993,"2353","NULL",2353,8207602.86,3488.1440118997
"Aims Community College","CO",126207,840575852,758200,758200,7582,"Public, 2-year",-104.764335,40.409037,"Weld County",NA,NA,"www.aims.edu",476252,0,0,1713148,1456909,118948,0,6100376,NA,123846,129320,"5001","NULL",5001,10118799,2023.35512897421
"Akron School of Practical Nursing","OH",200828,346000033,819400,NA,NA,"Public, less-than 2-year",-81.571862,41.09905,"Summit County",NA,NA,NA,0,0,0,56836,151019,16073,0,110158,NA,NA,NA,"59","NULL",59,334086,5662.47457627119
"Alabama A & M University","AL",100654,636001109,100200,100200,1002,"Public, 4-year or above",-86.568502,34.783368,"Madison County","Southwestern Athletic Conference","Southwestern Athletic Conference","www.aamu.edu/",8922132.37,2704670.91,354610.97,13632821,27834341,13900766,1924024,17103334.07,NA,371503,304786,"4210","1123",5333,87052989.32,16323.4557134821
"Alabama College of Osteopathic Medicine","AL",483975,273339185,4226700,NA,NA,"Private not-for-profit, 4-year or above",-85.340805,31.206294,"Houston County",NA,NA,NA,0,0,375760,0,21971395,0,13496497,NA,NA,NA,NA,"NULL","460",460,35843652,77920.9826086956
"Alabama Southern Community College","AL",101949,630503016,103400,103400,1034,"Public, 2-year",-87.326352,31.488925,"Monroe County",NA,NA,"www.ascc.edu",2042310.38,0,0,NA,NA,NA,NA,NA,NA,53605,48410,"1398","NULL",1398,2144325.38,1533.85220314735
"Alabama State University","AL",100724,636001101,100500,100500,1005,"Public, 4-year or above",-86.295677,32.364317,"Montgomery County","Southwestern Athletic Conference","Southwestern Athletic Conference","www.alasu.edu",8154583.46,2580968,0,12373176,20423427,11712194,1687072,15592105,877077,544570,1105622,"4805","619",5424,75050794.46,13836.7983886431
"Alamance Community College","NC",199786,566052379,546300,NA,NA,"Public, 2-year",-79.357657,36.066683,"Alamance County",NA,NA,NA,0,0,0,NA,NA,NA,NA,6133717.01,NA,73955,195007,"4666","NULL",4666,6402679.01,1372.19867338191
"Alamo Community College District Central Office","TX",NA,NA,NA,NA,NA,NA,NA,NA,NA,NA,NA,NA,7844737,0,6479,NA,NA,NA,NA,NA,NA,NA,NA,NA,NA,NA,7851216,NA
"Alaska Bible College","AK",102580,943255546,884300,NA,NA,"Private not-for-profit, 4-year or above",-149.111972,61.598553,"Matanuska-Susitna Borough",NA,NA,NA,0,0,0,57158,32825,9310,0,81229,NA,6480,6335,"49","NULL",49,193337,3945.65306122449
"Alaska Christian College","AK",442523,920174205,4138600,NA,NA,"Private not-for-profit, 2-year",-151.136005,60.490459,"Kenai Peninsula Borough",NA,NA,NA,-39524.68,0,0,182586,155270,0,0,378450.5,NA,5936,5000,"68","NULL",68,687717.82,10113.4973529412
"Alaska Pacific University","AK",102669,920023588,106100,NA,NA,"Private not-for-profit, 4-year or above",-149.804242,61.191235,"Anchorage Municipality",NA,NA,NA,0,296157,0,513561,1711253,210479,63517,409332,NA,35000,40299,"326","234",560,3279598,5856.425
"Albany BOCES-Adult Practical Nursing Program","NY",418038,146009582,2170200,NA,NA,"Public, less-than 2-year",-73.835752,42.745685,"Albany County",NA,NA,NA,0,0,0,364025,699620,60500,0,498243,NA,NA,NA,"160","NULL",160,1622388,10139.925
"Albany College of Pharmacy and Health Sciences","NY",188526,141423161,288500,NA,NA,"Private not-for-profit, 4-year or above",-73.778132,42.652559,"Albany County",NA,NA,NA,0,1440000,0,2741246,13945295,2899265,1645959,1033280,141000,182660,196271,"1084","478",1562,24224976,15508.947503201
"Albany Law School","NY",188535,141338309,288600,NA,NA,"Private not-for-profit, 4-year or above",-73.777692,42.651264,"Albany County",NA,NA,NA,0,0,0,0,5757360,0,4125136,NA,687560,NA,285841,"NULL","414",414,10855897,26221.9734299517
"Albany Medical College","NY",188580,141338310,288700,288700,2887,"Private not-for-profit, 4-year or above",-73.773975,42.653178,"Albany County",NA,NA,"www.amc.edu",2217345,8154545,748099.12,0,16639491,0,9512675,NA,NA,NA,335414,"NULL","822",822,37607569.12,45751.3006326034
"Albany State University","GA",138716,586001996,154400,154400,1544,"Public, 4-year or above",-84.141825,31.56928,"Dougherty County","Southern Intercollegiate Athletic Conf","Southern Intercollegiate Athletic Conf","www.asurams.edu/",5335931,994373,0,14469022,20132855,4963423,196654,17277209.18,NA,212085,280710,"3316","501",3817,63862262.18,16731.0092166623
"Albany Technical College","GA",138682,581788487,560100,NA,NA,"Public, 2-year",-84.174284,31.55434,"Dougherty County",NA,NA,NA,1565200,0,0,5556826,3320816,0,0,9153629.23,NA,274129,84363,"3640","NULL",3640,19954963.23,5482.13275549451
"Albert I Prince Technical High School","CT",417178,66000798,982200,NA,NA,"Public, less-than 2-year",-72.706597,41.741156,"Hartford County",NA,NA,NA,0,0,0,NA,NA,NA,NA,17084.51,NA,NA,NA,"57","NULL",57,17084.51,299.728245614035
"Albertus Magnus College","CT",128498,60646520,137400,NA,NA,"Private not-for-profit, 4-year or above",-72.923848,41.332519,"New Haven County",NA,"Great Northeast Athletic Conference",NA,0,0,0,5262667,12848429,867693,230121,3510885,118375,157152,144841,"1256","318",1574,23140163,14701.501270648
"Albion College","MI",168546,381359081,223500,223500,2235,"Private not-for-profit, 4-year or above",-84.746088,42.244603,"Calhoun County","Michigan Intercollegiate Athletic Assoc","Michigan Intercollegiate Athletic Assoc","www.albion.edu",16000,79691,0,3650629,2818608,3589944,0,2577928,437650,176446,196723,"1268","NULL",1268,13543619,10681.0875394322
"Albright College","PA",210571,231352615,322900,NA,NA,"Private not-for-profit, 4-year or above",-75.909742,40.361351,"Berks County","Middle Atlantic States Athletic Corporation","Commonwealth Conference",NA,289186,0,0,6977400,6422817,5691133,0,4499581,1498473,261249,231740,"2360","28",2388,25871579,10833.9945561139
"Alcorn State University","MS",175342,646000013,239600,239600,2396,"Public, 4-year or above",-91.142854,31.877216,"Claiborne County","Southwestern Athletic Conference","Southwestern Athletic Conference","www.alcorn.edu",3171641.66,1409795.01,59590,9176095,17169590,3974781,2611715,11594396.93,NA,907979,516062,"3006","607",3613,50591645.6,14002.6696927761
"Alderson Broaddus University","WV",237118,550357072,380600,380600,3806,"Private not-for-profit, 4-year or above",-80.047728,39.158067,"Barbour County","Great Midwest Athletic Conference","Great Midwest Athletic Conference","www.ab.edu/",0,0,0,2648036,4107406,1912467,2716111,2155028.9,347500,109113,233172,"1038","69",1107,14228833.9,12853.5084914182
"Alexandria Technical & Community College","MN",172918,411687754,554400,NA,NA,"Public, 2-year",-95.372369,45.873107,"Douglas County",NA,NA,NA,0,0,0,2220212,2906340,142700,0,2399949,NA,166200,138548,"2604","NULL",2604,7973949,3062.19239631336
"Alfred University","NY",188641,160743900,266800,266800,2668,"Private not-for-profit, 4-year or above",-77.788106,42.254476,"Allegany County","Empire Eight","Empire Eight","www.alfred.edu",536925,809753,1500,4985303,8691601,3330055,732656,3184634.7,737820,248260,608380,"1920","480",2400,23866887.7,9944.53654166667
"Alice Lloyd College","KY",156189,610492351,195100,NA,NA,"Private not-for-profit, 4-year or above",-82.875068,37.335087,"Knott County",NA,"Kentucky Intercollegiate Ath Conf",NA,0,0,0,1021886,724070,46565,0,1457908,NA,NA,110598,"657","NULL",657,3361027,5115.71841704718
"Allan Hancock College","CA",108807,521692042,111100,111100,1111,"Public, 2-year",-120.421486,34.942979,NA,NA,NA,"www.hancockcollege.edu/",575144,190810,55122,558158,546523,0,0,11497686,NA,191775,174754,"11047","NULL",11047,13789972,1248.3001719924
"Allegany College of Maryland","MD",161688,520846757,205700,205700,2057,"Public, 2-year",-78.729766,39.652658,"Allegany County",NA,NA,"www.allegany.edu",519218.12,0,0,3280064,4082765,612635,0,4987705.83,NA,166713,280494,"3227","NULL",3227,13929594.95,4316.57730089867
"Allegheny College","PA",210669,250965212,323000,323000,3230,"Private not-for-profit, 4-year or above",-80.146922,41.648068,"Crawford County","North Coast Athletic Conference","North Coast Athletic Conference","www.allegheny.edu",412802,361412,0,4774686,3631733,4550308,0,2657228,900000,319388,385492,"2023","NULL",2023,17993049,8894.24073158675
"Allegheny Wesleyan College","OH",200873,341142457,3457300,NA,NA,"Private not-for-profit, 4-year or above",-80.860091,40.867236,"Columbiana County",NA,NA,NA,0,0,0,11765,1735,0,0,187378,NA,6249,NA,"62","NULL",62,207127,3340.75806451613
"Allen College","IA",152798,421351526,3069100,3069100,30691,"Private not-for-profit, 4-year or above",-92.338018,42.531427,"Black Hawk County",NA,NA,"www.allencollege.edu",34865,0,0,1048526,4490419,990831,374603,371882.48,2000,19534,31078,"379","241",620,7363738.48,11876.9975483871
"Allen County Community College","KS",154642,480697480,190100,NA,NA,"Public, 2-year",-95.39681,37.937698,"Allen County",NA,NA,NA,0,0,0,819634,704652,0,0,2178207.87,NA,45508,55516,"2628","NULL",2628,3803517.87,1447.30512557078
"Allen University","SC",217624,570341191,341700,341700,3417,"Private not-for-profit, 4-year or above",-81.020045,34.010348,"Richland County",NA,"Appalachian Athletic Conference","www.allenuniversity.edu/",2111529,0,0,2393587,2411110,1213155,0,3009605.51,NA,182364,128192,"660","NULL",660,11449542.51,17347.7916818182
"Alma College","MI",168591,381359083,223600,223600,2236,"Private not-for-profit, 4-year or above",-84.670073,43.379236,"Gratiot County","Michigan Intercollegiate Athletic Assoc","Michigan Intercollegiate Athletic Assoc","alma.edu",0,71760,0,3864111,3060188,4587148,0,1853763.87,277745,213918,208956,"1396","NULL",1396,14137589.87,10127.2133739255
"Alpena Community College","MI",168607,382310748,223700,NA,NA,"Public, 4-year or above",-83.445069,45.081647,"Alpena County",NA,NA,NA,591876,0,0,964257,1041743,68473,0,2429366.65,NA,61950,63823,"1636","NULL",1636,5221488.65,3191.6189792176
"Alvernia University","PA",210775,231522643,323300,323300,3233,"Private not-for-profit, 4-year or above",-75.936754,40.310028,"Berks County",NA,"Commonwealth Conference","www.alvernia.edu",827470,0,0,6414914,13178866,5925370,803058,3503680,48388,107050,312354,"2442","498",2940,31121150,10585.425170068
"Alverno College","WI",238193,390806263,383200,383200,3832,"Private not-for-profit, 4-year or above",-87.965498,42.983518,"Milwaukee County",NA,"Northern Athletics Collegiate Conference","www.alverno.edu",0,0,8626.45,4237298,10724669,2021637,0,3352277.92,230830,97200,257008,"1723","651",2374,20929546.37,8816.15264111205
"Alvin Community College","TX",222567,741405330,353900,NA,NA,"Public, 2-year",-95.241078,29.396581,"Brazoria County",NA,NA,NA,1059158,0,0,767283,414616,23640,0,3487621,NA,82859,62615,"4837","NULL",4837,5897792,1219.30783543519
"Amarillo College","TX",222576,756000031,354000,NA,NA,"Public, 2-year",-101.847104,35.18841,"Potter County",NA,NA,NA,1589826.16,626769,0,5342095,7591150,88607,0,15976059.03,NA,274802,229821,"10336","NULL",10336,31719129.19,3068.80119872291
"Amberton University","TX",222628,751786007,2259400,NA,NA,"Private not-for-profit, 4-year or above",-96.653028,32.859937,"Dallas County",NA,NA,NA,0,0,0,NA,NA,NA,NA,68676.06,NA,NA,NA,NA,NA,NA,68676.06,NA
"American Academy McAllister Institute of Funeral Service","NY",188687,132590811,1081300,NA,NA,"Private not-for-profit, 2-year",-73.993782,40.769031,"New York County",NA,NA,NA,0,0,0,1202588,922312,37800,0,696983.97,NA,NA,NA,"424","NULL",424,2859683.97,6744.53766509434
"American Academy of Art","IL",142887,363778690,162800,NA,NA,"Private not-for-profit, 4-year or above",-87.624396,41.877824,"Cook County",NA,NA,NA,0,0,0,1397591,1120199,2679012,0,569327,NA,53364,NA,"365","NULL",365,5819493,15943.8164383562
"American Academy of Dramatic Arts-New York","NY",188678,130429660,746500,NA,NA,"Private not-for-profit, 2-year",-73.984843,40.745545,"New York County",NA,NA,NA,0,0,0,1017419,985018,4476322,0,899830.56,NA,65652,56608,"253","NULL",253,7500849.56,29647.6267193676
"American Baptist College","TN",219505,620485724,1046000,NA,NA,"Private not-for-profit, 4-year or above",-86.789301,36.201155,"Davidson County",NA,NA,NA,2110770,0,0,473152,692218,83353,0,487660.34,NA,NA,NA,"157","NULL",157,3847153.34,24504.1614012739
"American Film Institute Conservatory","CA",108870,526072925,2222000,NA,NA,"Private not-for-profit, 4-year or above",-118.309989,34.10846,"Los Angeles County",NA,NA,NA,0,0,0,0,2763330,0,4834280,NA,NA,NA,NA,"NULL","328",328,7597610,23163.4451219512
"American Indian OIC Inc","MN",172927,411365561,2514100,NA,NA,"Private not-for-profit, less-than 2-year",-93.246166,44.961993,"Hennepin County",NA,NA,NA,351988,0,0,NA,NA,NA,NA,120356,NA,NA,NA,"252","NULL",252,472344,1874.38095238095
"American International College","MA",164447,42103701,211400,211400,2114,"Private not-for-profit, 4-year or above",-72.558507,42.112708,"Hampden County","Northeast 10 Conference","Northeast 10 Conference","www.aic.edu",209681.96,0,0,4311615,22072496,4518957,5773505,3846265,NA,240896,444489,"1473","2051",3524,41417904.96,11753.0944835414
"American Jewish University","CA",116846,951684064,274100,NA,NA,"Private not-for-profit, 4-year or above",-118.471764,34.128099,"Los Angeles County",NA,NA,NA,0,0,0,127500,903305,107108,583699,155802.5,NA,22274,25128,"103","101",204,1924816.5,9435.375
"American River College","CA",109208,941576340,123200,NA,NA,"Public, 2-year",-121.346012,38.649734,"Sacramento County",NA,NA,NA,2280985.76,0,0,4060228,4657160,0,0,26988276.82,NA,856087,906550,"29133","NULL",29133,39749287.58,1364.40763326812
"American Samoa Community College","AS",240736,660516639,1001000,1001000,10010,"Public, 4-year or above",-170.742728,-14.322587,NA,NA,NA,"www.amsamoa.edu",623087.68,93350,0,NA,NA,NA,NA,3711135.63,NA,46517,56997,"1276","NULL",1276,4531087.31,3551.00886363636
"American University","DC",131159,530196549,143400,143400,1434,"Private not-for-profit, 4-year or above",-77.090106,38.937802,"District Of Columbia",NA,"Patriot League","WWW.AMERICAN.EDU",4300522.58,3987384.65,2253377.56,NA,NA,NA,NA,NA,1038584,974667,1573790,"7706","5289",12995,14128325.79,1087.21245017314
"American University","DC",131159,530196549,143400,143400,1434,"Private not-for-profit, 4-year or above",-77.090106,38.937802,"District Of Columbia",NA,"Patriot League","WWW.AMERICAN.EDU",4300522.58,3987384.65,2253377.56,14835294,78443317,27561252,48126119,5874065.42,1038584,974667,1573790,"7706","5289",12995,188968373.21,14541.6216398615
"American University of Puerto Rico","PR",241100,660350945,1194100,1194100,11941,"Private not-for-profit, 4-year or above",-66.18678,18.406139,NA,NA,NA,"www.aupr.edu",2101779.62,0,0,465266,256847,22640,0,5950222.23,NA,101587,367461,"749","60",809,9265802.85,11453.4027812114
"Amherst College","MA",164465,42103542,211500,211500,2115,"Private not-for-profit, 4-year or above",-72.518493,42.372459,"Hampshire County","New England Small College Ath Conf","New England Small College Ath Conf","www.amherst.edu",10000,544651,0,1018871,806483,2641097,0,2148299,12748,359607,435075,"1792","NULL",1792,7976831,4451.35658482143
"Amridge University","AL",100690,237034324,2503400,NA,NA,"Private not-for-profit, 4-year or above",-86.17401,32.362609,"Montgomery County",NA,NA,NA,0,0,0,1230122,6417676,53951,1505020,923315.64,NA,14650,NA,"279","319",598,10144734.64,16964.4391973244
"Ancilla College","IN",150048,356071917,178400,NA,NA,"Private not-for-profit, 2-year",-86.445263,41.337958,"Marshall County",NA,NA,NA,0,0,0,869293,1000845,639080,0,1312769.58,NA,37588,30981,"400","NULL",400,3890556.58,9726.39145
"Anderson University","IN",150066,350867954,178500,178500,1785,"Private not-for-profit, 4-year or above",-85.662292,40.112167,"Madison County","Heartland Collegiate Athletic Conference","Heartland Collegiate Athletic Conference","www.anderson.edu",0,0,0,4734512,7622368,4097951,52082,2643253.37,50321,370663,514206,"1976","418",2394,20085356.37,8389.87317042607
"Anderson University","SC",217633,570324906,341800,NA,NA,"Private not-for-profit, 4-year or above",-82.640205,34.515506,"Anderson County",NA,"South Atlantic Conference",NA,200000,0,0,5979721,13020088,4292383,0,3737987,490899,143786,218399,"2775","386",3161,28083263,8884.29705789307
"Andover Newton Theological School","MA",164474,42104775,211600,NA,NA,"Private not-for-profit, 4-year or above",-71.188943,42.324852,"Middlesex County",NA,NA,NA,0,0,0,0,755084,0,48300,NA,NA,NA,NA,"NULL","234",234,803384,3433.26495726496
"Andrew College","GA",138761,580568687,154500,154500,1545,"Private not-for-profit, 2-year",-84.795021,31.772321,"Randolph County",NA,NA,"www.andrewcollege.edu",-419.34,0,0,658307,543319,699140,0,731815.82,NA,28047,50123,"303","NULL",303,2710332.48,8944.99168316832
"Andrews University","MI",168740,381627600,223800,NA,NA,"Private not-for-profit, 4-year or above",-86.355815,41.963859,"Berrien County",NA,NA,NA,0,197327,0,2629428,13713345,4152358,3274261,2011239,218400,250039,261090,"1926","1633",3559,26707487,7504.21101432987
"Angelina College","TX",222822,751244347,666100,NA,NA,"Public, 2-year",-94.731625,31.287444,"Angelina County",NA,NA,NA,78982,0,0,NA,NA,NA,NA,8099935.23,NA,97734,91053,"5148","NULL",5148,8367704.23,1625.42817210567
"Angelo State University","TX",222831,756002403,354100,354100,3541,"Public, 4-year or above",-100.466495,31.44145,"Tom Green County","Lone Star Conference","Lone Star Conference","www.angelo.edu",611660.61,99997,0,8872528,22284230,4654783,173236,11168902.63,NA,134883,293275,"5425","1306",6731,48293495.24,7174.78758579706
"Anna Maria College","MA",164492,42002060,211700,NA,NA,"Private not-for-profit, 4-year or above",-71.918961,42.33055,"Worcester County","Eastern Collegiate Football Conference","Great Northeast Athletic Conference",NA,0,0,0,2949403,4647366,3013382,7341,1669512.36,100000,109278,198435,"1107","323",1430,12694717.36,8877.42472727273
"Anne Arundel Community College","MD",161767,520905706,205800,NA,NA,"Public, 2-year",-76.512223,39.049813,"Anne Arundel County",NA,NA,NA,0,0,0,3561711,3640307,21490,0,9919771.17,NA,205358,245060,"15274","NULL",15274,17593697.17,1151.87227772686
"Annenberg School of Nursing","CA",475705,208449705,4191300,NA,NA,"Private not-for-profit, less-than 2-year",-118.553851,34.200825,"Los Angeles County",NA,NA,NA,0,0,0,49005,66063,0,0,31668,NA,NA,NA,"41","NULL",41,146736,3578.92682926829
"Anoka Technical College","MN",172954,411687554,735000,NA,NA,"Public, 2-year",-93.415955,45.216331,"Anoka County",NA,NA,NA,0,0,0,2323592,3749520,35415,0,2527083,NA,53500,65530,"2221","NULL",2221,8754640,3941.75596578118
"Anoka-Ramsey Community College","MN",172963,411687554,233200,233200,2332,"Public, 2-year",-93.351697,45.172978,"Anoka County",NA,NA,"www.anokaramsey.edu",1632859.16,0,0,6706440,8266188,81808,0,8008524,2400,130500,176536,"7877","NULL",7877,25005255.16,3174.46428335661
"Antelope Valley College","CA",109350,952228663,111300,111300,1113,"Public, 4-year or above",-118.186166,34.676207,"Los Angeles County",NA,NA,"www.avc.edu",514400.67,0,0,6134065,2865123,0,0,24655408.02,NA,372895,380511,"14578","NULL",14578,34922402.69,2395.55513033338
"Antioch College","OH",483018,261672457,4244300,NA,NA,"Private not-for-profit, 4-year or above",-83.888077,39.799806,"Greene County",NA,NA,NA,0,0,0,250484,210263,182139,0,360477,NA,NA,NA,"238","NULL",238,1003363,4215.81092436975
"Antioch University","OH",245892,310536640,301000,NA,NA,"Private not-for-profit, 4-year or above",-83.908684,39.80321,"Greene County",NA,NA,NA,74991,0,0,1756160,38068817,30135,11594102,1193485.09,730069,1080432,1580542,"81","129",210,56108733.09,267184.443285714
"Antioch University-New England","NH",245865,310536640,301004,NA,NA,"Private not-for-profit, 4-year or above",-72.293798,42.932344,"Cheshire County",NA,NA,NA,397440,0,0,NA,NA,NA,NA,NA,NA,NA,NA,"NULL","731",731,397440,543.693570451436
"Antioch University-Santa Barbara","CA",245847,310536640,301003,301003,3010,"Private not-for-profit, 4-year or above",-119.6958,34.419203,"Santa Barbara County",NA,NA,"www.antiochsb.edu",330640,0,0,NA,NA,NA,NA,NA,NA,NA,NA,"187","252",439,330640,753.166287015945
"Apex School of Theology","NC",441511,562031568,3513400,NA,NA,"Private not-for-profit, 4-year or above",-78.841041,35.92318,"Durham County",NA,NA,NA,0,0,0,2606407,5080952,0,0,3180305.35,NA,NA,NA,"596","180",776,10867664.35,14004.7221005155
"Apollo Career Center","OH",201034,341126813,2562300,NA,NA,"Public, less-than 2-year",-84.14971,40.69222,"Allen County",NA,NA,NA,0,0,0,308580,490191,5739,0,547887,NA,NA,NA,"1267","NULL",1267,1352397,1067.40094711918
"Appalachian Bible College","WV",237136,550370901,754400,NA,NA,"Private not-for-profit, 4-year or above",-81.20115,37.853339,"Raleigh County",NA,NA,NA,0,0,0,158150,81335,29820,0,428706,NA,8816,16588,"295","NULL",295,723415,2452.25423728814
"Appalachian College of Pharmacy","VA",449922,260069167,4180600,NA,NA,"Private not-for-profit, 4-year or above",-82.005227,37.211496,"Buchanan County",NA,NA,NA,0,0,0,0,7779098,0,1533084,NA,NA,NA,NA,"NULL","202",202,9312182,46099.9108910891
"Appalachian School of Law","VA",432348,541743079,3559300,NA,NA,"Private not-for-profit, 4-year or above",-82.096426,37.278007,"Buchanan County",NA,NA,NA,0,0,0,0,1738088,0,1838578,NA,NA,NA,13686,"NULL","109",109,3590352,32939.0091743119
"Appalachian State University","NC",197869,561176030,290600,290600,2906,"Public, 4-year or above",-81.680234,36.214844,"Watauga County","Sun Belt Conference","Sun Belt Conference","www.appstate.edu/",7578136.16,924498,0,27242471,37676069,32749199,690594,21253228,389989,466509,405037,"16255","1642",17897,129375730.16,7228.9059708331
"Applied Technology Services","MO",417716,436015057,3068600,NA,NA,"Public, less-than 2-year",-90.413236,38.542285,"St. Louis County",NA,NA,NA,0,0,0,502847,809885,50000,0,713127,NA,NA,NA,"231","NULL",231,2075859,8986.4025974026
"Aquinas College","MI",168786,381367080,223900,223900,2239,"Private not-for-profit, 4-year or above",-85.626166,42.960449,"Kent County",NA,"Wolverine-Hoosier Athletic Conference","www.aquinas.edu",763975.54,0,0,3241307,2990278,1672879,0,1998384.81,NA,212870,157652,"1789","109",1898,11037346.35,5815.25097471022
"Aquinas College","TN",219578,620812782,347700,NA,NA,"Private not-for-profit, 4-year or above",-86.844214,36.132187,"Davidson County",NA,NA,NA,0,0,0,239960,267931,63700,0,138485.59,NA,23327,23817,"415","47",462,757220.59,1639.00560606061
"Arapahoe Community College","CO",126289,840704120,134600,134600,1346,"Public, 2-year",-105.018631,39.607505,"Arapahoe County",NA,NA,"www.arapahoe.edu",0,0,0,5487098,6554662,57352,0,5621375,NA,232613,115656,"10401","NULL",10401,18068756,1737.21334487069
"Arcadia University","PA",211088,231352620,323500,NA,NA,"Private not-for-profit, 4-year or above",-75.165205,40.091941,"Montgomery County",NA,"Middle Atlantic States Athletic Corporation",NA,0,0,0,6842728,17745528,6176275,7569253,3613349.13,74500,231072,823372,"2594","1344",3938,43076077.13,10938.5670721178
"Aria Health School of Nursing","PA",212568,230596940,972300,NA,NA,"Private not-for-profit, 2-year",-74.978275,40.125175,"Bucks County",NA,NA,NA,0,0,0,744247,1146191,236528,0,417879,NA,17849,9749,"217","NULL",217,2572443,11854.5760368664
"Arizona Christian University","AZ",105899,860186050,711300,NA,NA,"Private not-for-profit, 4-year or above",-112.026211,33.595117,"Maricopa County","Central States Football League","Golden State Athletic Conference",NA,0,0,0,1974946,1782665,1263626,0,1540656,NA,42526,51308,"737","NULL",737,6655727,9030.83717774763
"Arizona State University-Tempe","AZ",104151,860196696,108100,108100,1081,"Public, 4-year or above",-111.934629,33.422247,"Maricopa County","Pacific-12 Conference","Pacific-12 Conference","www.asu.edu/",60704497.5,145018844.56,9759702.81,141805122,289800676,120687523,70769014,127007699.37,1441608,4499330,5184900,"39961","10156",50117,976678917.24,19487.9764798372
"Arizona Western College","AZ",104160,860179321,107100,107100,1071,"Public, 2-year",-114.495968,32.689306,"Yuma County",NA,NA,"www.azwestern.edu",2555655.94,0,0,480134,286761,107527,0,14165114.96,NA,396523,348415,"7702","NULL",7702,18340130.9,2381.21668397819
"Arkansas Baptist College","AR",106306,710298658,108700,108700,1087,"Private not-for-profit, 4-year or above",-92.290555,34.734751,"Pulaski County",NA,NA,"www.arkansasbaptist.edu",2262723,0,0,1916995,2399739,617599,0,2926257.3,NA,59950,55032,"899","NULL",899,10238295.3,11388.5375973304
"Arkansas Northeastern College","AR",107327,710460696,1286000,NA,NA,"Public, 2-year",-89.921005,35.898597,"Mississippi County",NA,NA,NA,1169564,0,0,NA,NA,NA,NA,2206800,NA,NA,NA,"1425","NULL",1425,3376364,2369.37824561404
"Arkansas State University Mid-South","AR",107318,710533838,2348200,2348200,23482,"Public, 2-year",-90.22285,35.145736,"Crittenden County",NA,NA,"www.midsouthcc.edu",997420.58,0,0,NA,NA,NA,NA,NA,NA,46000,48980,"1895","NULL",1895,1092400.58,576.464686015831
"Arkansas State University Mid-South","AR",107318,710533838,2348200,2348200,23482,"Public, 2-year",-90.22285,35.145736,"Crittenden County",NA,NA,"www.midsouthcc.edu",997420.58,0,0,NA,NA,NA,NA,2719992.29,NA,46000,48980,"1895","NULL",1895,3812392.87,2011.81681794195
"Arkansas State University-Beebe","AR",106449,710421333,109100,109100,1091,"Public, 2-year",-91.896165,35.074512,"White County",NA,NA,"www.asub.edu",1098777,0,0,1480598,1459966,12375,0,4836151.48,NA,124347,111768,"4140","NULL",4140,9123982.48,2203.86050241546
"Arkansas State University-Main Campus","AR",106458,716000556,109000,109000,1090,"Public, 4-year or above",-90.680478,35.842779,"Craighead County","Sun Belt Conference","Sun Belt Conference","www2.astate.edu",292557.39,194238,15930,17625748,66904752,4523862,2586259,19760729,118950,320415,493977,"9857","3818",13675,112837417.39,8251.36507422303
"Arkansas State University-Mountain Home","AR",420538,621687591,4254400,NA,NA,"Public, 2-year",-92.388581,36.320466,"Baxter County",NA,NA,NA,0,0,0,1105316,1335167,0,0,3170427,NA,NA,NA,NA,NA,NA,5610910,NA
"Arkansas State University-Newport","AR",440402,710855933,4203400,NA,NA,"Public, 2-year",-91.188846,35.638722,"Jackson County",NA,NA,NA,0,0,0,1429588,1596404,11736,0,3951855.07,NA,109282,68457,"2477","NULL",2477,7167322.07,2893.54948324586
"Arkansas Tech University","AR",106467,716014834,108900,108900,1089,"Public, 4-year or above",-93.13562,35.293237,"Pope County","Great American Conference","Great American Conference","www.atu.edu",781283.74,0,-6720,14990153,22817417,3145994,98085,18979414,107000,322357,451423,"11099","863",11962,61686406.74,5156.86396422003
"Arlington Baptist College","TX",222877,750983821,2081400,NA,NA,"Private not-for-profit, 4-year or above",-97.155661,32.739543,"Tarrant County",NA,NA,NA,0,0,0,440019,774011,234219,0,411430,NA,NA,NA,"233","18",251,1859679,7409.0796812749
"Armstrong State University","GA",138789,586000063,154600,154600,1546,"Public, 4-year or above",-81.160409,31.978109,"Chatham County",NA,"Peach Belt Conference","www.armstrong.edu",2025528,0,37722,11716705,21968104,4129705,835987,12152794.25,NA,116148,285882,"6346","772",7118,53268575.25,7483.64361477943
"Arnot Ogden Medical Center","NY",188915,160743905,643500,NA,NA,"Private not-for-profit, 2-year",-76.828353,42.10099,"Chemung County",NA,NA,NA,0,0,0,NA,NA,NA,NA,NA,NA,9885,7128,"71","NULL",71,17013,239.619718309859
"Arnot Ogden Medical Center","NY",188915,160743905,643500,NA,NA,"Private not-for-profit, 2-year",-76.828353,42.10099,"Chemung County",NA,NA,NA,0,0,0,148603,223047,1000,0,150155,NA,9885,7128,"71","NULL",71,539818,7603.07042253521
"Art Academy of Cincinnati","OH",201061,311601569,301100,NA,NA,"Private not-for-profit, 4-year or above",-84.513913,39.108805,"Hamilton County",NA,NA,NA,0,0,0,448973,449056,1045536,0,214260,NA,20659,5705,"206","7",213,2184189,10254.4084507042
"Art Center College of Design","CA",109651,951921340,111600,NA,NA,"Private not-for-profit, 4-year or above",-118.186901,34.170844,"Los Angeles County",NA,NA,NA,55000,0,0,4700081,5402256,7618516,1347625,3591288.46,NA,256877,226631,"1824","218",2042,23198274.46,11360.5653574927
"Asbury Theological Seminary","KY",156222,610445823,195300,NA,NA,"Private not-for-profit, 4-year or above",-84.661862,37.863704,"Jessamine County",NA,NA,NA,0,0,0,0,6072248,0,178782,NA,NA,NA,185970,"NULL","1540",1540,6437000,4179.87012987013
"Asbury University","KY",156213,610458355,195200,NA,NA,"Private not-for-profit, 4-year or above",-84.662606,37.862029,"Jessamine County",NA,"Kentucky Intercollegiate Ath Conf",NA,0,0,0,NA,NA,NA,NA,NA,315636,134772,302125,"1646","241",1887,752533,398.798622151563
"Asbury University","KY",156213,610458355,195200,NA,NA,"Private not-for-profit, 4-year or above",-84.662606,37.862029,"Jessamine County",NA,"Kentucky Intercollegiate Ath Conf",NA,0,0,0,3509568,5597579,2092348,90175,2229541,315636,134772,302125,"1646","241",1887,14271744,7563.19236883943
"Asheville-Buncombe Technical Community College","NC",197887,560792170,403300,403300,4033,"Public, 2-year",-82.555838,35.571055,"Buncombe County",NA,NA,"www.abtech.edu",0,0,0,3620111,4334136,38336,0,9215221.95,NA,98135,209423,"7507","NULL",7507,17515362.95,2333.2040695351
"Ashland Community and Technical College","KY",156231,611320380,199000,199000,1990,"Public, 2-year",-82.650664,38.469201,"Boyd County",NA,NA,"www.ashland.kctcs.edu/",1021312.02,0,0,3164853,2636215,3018,0,6415385.77,NA,116117,119354,"3345","NULL",3345,13476254.79,4028.77572197309
"Ashland University","OH",201104,340714626,301200,301200,3012,"Private not-for-profit, 4-year or above",-82.320621,40.860987,"Ashland County","Great Lakes Intercollegiate Ath Conf","Great Lakes Intercollegiate Ath Conf","https://www.ashland.edu",0,875032,0,7633215,19114385,5108756,308838,10216224.6,321636,240858,426862,"3746","1961",5707,44245806.6,7752.90110390748
"Ashtabula County Technical and Career Campus","OH",201131,340970014,2187900,NA,NA,"Public, less-than 2-year",-80.73451,41.745865,"Ashtabula County",NA,NA,NA,0,0,0,199576,289044,8250,0,424834.05,NA,NA,NA,"166","NULL",166,921704.05,5552.43403614458
"Asnuntuck Community College","CT",128577,66000798,1115000,1115000,11150,"Public, 2-year",-72.570177,41.998409,"Hartford County",NA,NA,"www.Asnuntuck.edu",0,0,0,525592,1049696,0,0,3225486.25,NA,47287,60364,"1603","NULL",1603,4908425.25,3062.02448533999
"Assabet Valley Regional Technical School","MA",164535,42444973,2169900,NA,NA,"Public, less-than 2-year",-71.565261,42.36834,"Middlesex County",NA,NA,NA,0,0,0,54250,100750,0,0,106178,NA,NA,NA,"46","NULL",46,261178,5677.78260869565
"Assemblies of God Theological Seminary","MO",176619,431002542,246302,NA,NA,"Private not-for-profit, 4-year or above",-93.26151,37.224401,"Greene County",NA,NA,NA,78294,0,0,NA,NA,NA,NA,NA,NA,NA,NA,"NULL","323",323,78294,242.396284829721
"Associated Beth Rivkah Schools","NY",188942,112163504,2506000,NA,NA,"Private not-for-profit, 2-year",-73.950087,40.666388,"Kings County",NA,NA,NA,0,0,0,NA,NA,NA,NA,533055,NA,41381,101138,"147","NULL",147,675574,4595.74149659864
"Assumption College","MA",164562,42105776,211800,211800,2118,"Private not-for-profit, 4-year or above",-71.828387,42.295435,"Worcester County","Northeast 10 Conference","Northeast 10 Conference","www.assumption.edu",200000,-4606,0,4869614,8636950,4063142,52973,1839670.31,290680,222466,346667,"2225","446",2671,20517556.31,7681.60101460127
"Athens State University","AL",100812,630701340,100800,NA,NA,"Public, 4-year or above",-86.96514,34.805625,"Limestone County",NA,NA,NA,0,0,0,6482305,8599065,201985,0,5306318.5,NA,102106,70596,"3128","NULL",3128,20762375.5,6637.58807544757
"Athens Technical College","GA",246813,581722080,560000,560000,5600,"Public, 2-year",-83.339598,33.990183,"Clarke County",NA,NA,"www.athenstech.edu/",-826812.4,0,0,NA,NA,NA,NA,6145539.97,NA,149406,114802,"4336","NULL",4336,5582935.57,1287.57739160517
"Atlanta Metropolitan State College","GA",138901,581190222,1216500,NA,NA,"Public, 4-year or above",-84.404659,33.70893,"Fulton County",NA,NA,NA,2197045.32,0,0,2842018,2060658,123306,0,7495706.36,NA,152433,129437,"3033","NULL",3033,15000603.68,4945.79745466535
"Atlanta Technical College","GA",138840,586000134,854300,NA,NA,"Public, 2-year",-84.404995,33.712009,"Fulton County",NA,NA,NA,0,0,0,7391967,8284583,0,0,11521481.74,NA,167299,75650,"4282","NULL",4282,27440980.74,6408.44949556282
"Atlantic Cape Community College","NJ",183655,237368159,259600,NA,NA,"Public, 2-year",-74.680019,39.462081,"Atlantic County",NA,NA,NA,302295.6,0,0,2591743,1989894,165014,0,11834814.4,NA,172700,126660,"6845","NULL",6845,17183121,2510.31716581446
"Atlantic Institute of Oriental Medicine","FL",439446,650512087,3429600,NA,NA,"Private not-for-profit, 4-year or above",-80.142235,26.121964,"Broward County",NA,NA,NA,0,0,0,27500,2404749,13165,1102146,NA,NA,NA,NA,"23","123",146,3547560,24298.3561643836
"Atlantic Technical College","FL",132374,596000530,1226300,NA,NA,"Public, 2-year",-80.192271,26.24278,"Broward County",NA,NA,NA,0,0,0,NA,NA,NA,NA,NA,NA,18311,NA,"3561","NULL",3561,18311,5.1420949171581
"Atlantic Technical College","FL",132374,596000530,1226300,NA,NA,"Public, 2-year",-80.192271,26.24278,"Broward County",NA,NA,NA,0,0,0,NA,NA,NA,NA,1231486,NA,18311,NA,"3561","NULL",3561,1249797,350.96798652064
"Auburn Career Center","OH",201159,50926564,3051400,NA,NA,"Public, less-than 2-year",-81.243798,41.649238,"Lake County",NA,NA,NA,0,0,0,156376,305082,12444,0,265028,NA,NA,NA,"224","NULL",224,738930,3298.79464285714
"Auburn University","AL",100858,636000724,100900,100900,1009,"Public, 4-year or above",-85.482782,32.604685,"Lee County","Southeastern Conference","Southeastern Conference","www.auburn.edu",11718727.96,30620732.78,1727242.9,25473413,69406126,41100623,9287485,15806318,2035806,828865,559484,"20629","5501",26130,208564823.64,7981.81491159587
"Auburn University at Montgomery","AL",100830,636000724,831000,831000,8310,"Public, 4-year or above",-86.177351,32.369939,"Montgomery County",NA,"Independent Southeast Region","www.aum.edu",394811,0,0,8625545,13632621,2315842,218581,8631152,420000,186525,134165,"4377","662",5039,34559242,6858.35324469141
"Augsburg College","MN",173045,410694721,233400,233400,2334,"Private not-for-profit, 4-year or above",-93.241418,44.965636,"Hennepin County","Minnesota Intercollegiate Ath Conf","Minnesota Intercollegiate Ath Conf","www.augsburg.edu",249440,397274,0,NA,NA,NA,NA,NA,1044377,685822,340288,"2619","984",3603,2717201,754.149597557591
"Augsburg College","MN",173045,410694721,233400,233400,2334,"Private not-for-profit, 4-year or above",-93.241418,44.965636,"Hennepin County","Minnesota Intercollegiate Ath Conf","Minnesota Intercollegiate Ath Conf","www.augsburg.edu",249440,397274,0,6435680,17610524,3664834,2701902,5058132,1044377,685822,340288,"2619","984",3603,38188273,10599.0210935332
"Augusta Technical College","GA",138956,581723458,559900,NA,NA,"Public, 2-year",-82.048439,33.418992,"Richmond County",NA,NA,NA,607006,0,0,NA,NA,NA,NA,9414858.97,NA,172466,138141,"4269","NULL",4269,10332471.97,2420.34948934177
"Augusta University","GA",482149,586002053,157900,157900,1579,"Public, 4-year or above",-81.988361,33.47145,"Richmond County",NA,"Peach Belt Conference","www.augusta.edu",5357447,46823716,4422515.57,NA,NA,NA,NA,NA,348068,313056,236693,"5224","3357",8581,57501495.57,6701.02500524414
"Augusta University","GA",482149,586002053,157900,157900,1579,"Public, 4-year or above",-81.988361,33.47145,"Richmond County",NA,"Peach Belt Conference","www.augusta.edu",5357447,46823716,4422515.57,9438506,63894453,2196996,18246920,9413677.87,348068,313056,236693,"5224","3357",8581,160692048.44,18726.4943992542
"Augustana College","IL",143084,362166962,163300,163300,1633,"Private not-for-profit, 4-year or above",-90.552402,41.500326,NA,NA,NA,"www.augustana.edu",15000,1000,0,6223974,5651603,6251398,0,2588106,711910,373697,933629,"2497","NULL",2497,22750317,9111.0600720865
"Augustana University","SD",219000,460224588,345800,345800,3458,"Private not-for-profit, 4-year or above",-96.738507,43.525939,"Minnehaha County","Northern Sun Intercollegiate Conference","Northern Sun Intercollegiate Conference","www.augie.edu",0,119006,0,NA,NA,NA,NA,NA,472667,607885,593067,"1671","224",1895,1792625,945.976253298153
"Augustana University","SD",219000,460224588,345800,345800,3458,"Private not-for-profit, 4-year or above",-96.738507,43.525939,"Minnehaha County","Northern Sun Intercollegiate Conference","Northern Sun Intercollegiate Conference","www.augie.edu",0,119006,0,3200479,5009735,832038,54307,1519500,472667,607885,593067,"1671","224",1895,12408684,6548.11820580475
"Aultman College of Nursing and Health Sciences","OH",201177,340714538,648700,NA,NA,"Private not-for-profit, 4-year or above",-81.404182,40.796865,"Stark County",NA,NA,NA,0,0,0,661389,992620,645318,0,517454.99,NA,NA,24372,"358","NULL",358,2841153.99,7936.18432960894
"Aurora University","IL",143118,362166964,163400,163400,1634,"Private not-for-profit, 4-year or above",-88.349469,41.754465,"Kane County","Northern Athletics Collegiate Conference","Northern Athletics Collegiate Conference","aurora.edu",0,0,0,10184603,30393235,4180244,824330,7444419.72,NA,226808,355997,"3383","1843",5226,53609636.72,10258.2542518178
"Austin College","TX",222983,750827409,354300,354300,3543,"Private not-for-profit, 4-year or above",-96.598772,33.646307,"Grayson County","Southern Collegiate Athletic Conference","Southern Collegiate Athletic Conference","www.austincollege.edu",1165546,1254175,46914,2218850,2263130,3023403,26455,1857550,331925,329275,431453,"1278","17",1295,12948676,9998.97760617761
"Austin Graduate School of Theology","TX",247825,510174094,2362800,NA,NA,"Private not-for-profit, 4-year or above",-97.711706,30.343788,"Travis County",NA,NA,NA,0,0,0,37038,74900,0,0,24485.5,NA,6251,6926,"17","22",39,149600.5,3835.91025641026
"Austin Peay State University","TN",219602,620646576,347800,347800,3478,"Public, 4-year or above",-87.354081,36.533319,"Montgomery County","Ohio Valley Conference","Ohio Valley Conference","www.apsu.edu",1421842.11,468274,0,18504962,24784848,5336834,189852,21500764.3,121810,543108,349309,"9246","915",10161,73221603.41,7206.14146343864
"Austin Presbyterian Theological Seminary","TX",223001,741143056,354400,NA,NA,"Private not-for-profit, 4-year or above",-97.737752,30.292635,"Travis County",NA,NA,NA,0,0,0,0,329890,0,0,NA,NA,NA,NA,"NULL","159",159,329890,2074.77987421384
"Autry Technology Center","OK",365213,730933656,834300,NA,NA,"Public, 2-year",-97.89719,36.419122,"Garfield County",NA,NA,NA,0,0,0,NA,NA,NA,NA,343842.87,NA,NA,NA,"633","NULL",633,343842.87,543.195687203791
"Ave Maria School of Law","FL",442295,383519708,3691400,NA,NA,"Private not-for-profit, 4-year or above",-81.731045,26.24209,"Collier County",NA,NA,NA,0,0,0,0,3889136,0,5667394,NA,NA,NA,122815,"NULL","269",269,9679345,35982.6951672862
"Ave Maria University","FL",446048,30482006,3941300,NA,NA,"Private not-for-profit, 4-year or above",-81.441082,26.33711,"Collier County","Florida Sun Conference","Florida Sun Conference",NA,0,0,0,1723482,2011867,1359371,0,1265360,NA,34250,96278,"1028","40",1068,6490608,6077.34831460674
"Avera McKennan Hospital School of Radiologic Technology","SD",219170,146022474,492900,NA,NA,"Private not-for-profit, 2-year",-96.715584,43.533972,"Minnehaha County",NA,NA,NA,0,0,0,0,2750,7500,0,NA,NA,NA,NA,"20","NULL",20,10250,512.5
"Averett University","VA",231420,540129860,370200,NA,NA,"Private not-for-profit, 4-year or above",-79.413214,36.577273,"Danville City","USA South Athletic Conference","USA South Athletic Conference",NA,0,0,0,3505731,7364302,4267487,39233,2506114.79,235250,118512,129331,"852","4",856,18165960.79,21221.9168107477
"Avila University","MO",176628,440617326,244900,244900,2449,"Private not-for-profit, 4-year or above",-94.591387,38.912159,"Jackson County","Heart of America Athletic Conference","Heart of America Athletic Conference","www.Avila.edu",1110323,650000,0,3561037,7202315,1434294,15356,2378075.5,162849,107900,174344,"1407","462",1869,16796493.5,8986.88790797218
"AVTEC-Alaska's Institute of Technology","AK",102711,926001185,3160300,NA,NA,"Public, less-than 2-year",-149.444573,60.110727,"Kenai Peninsula Borough",NA,NA,NA,0,0,0,92075,133852,17950,0,333202,NA,NA,NA,"1667","NULL",1667,577079,346.178164367127
"Azusa Pacific University","CA",109785,951744369,111700,111700,1117,"Private not-for-profit, 4-year or above",-117.88795,34.130865,"Los Angeles County","Great Northeast Athletic Conference","Pacific West Conference","www.apu.edu",3049885,46000,0,23938476,84007355,15875099,23446717,13109848.99,833693,653891,1424756,"5918","4092",10010,166385720.99,16621.9501488511
"B M Spurr School of Practical Nursing","WV",237145,550357045,1235900,NA,NA,"Private not-for-profit, less-than 2-year",-80.753173,39.946228,"Marshall County",NA,NA,NA,0,0,0,NA,NA,NA,NA,29638,NA,NA,NA,"32","NULL",32,29638,926.1875
"Bacone College","OK",206817,730590036,314700,314700,3147,"Private not-for-profit, 4-year or above",-95.335337,35.77707,"Muskogee County","Central States Football League","Sooner Athletic Conference","www.bacone.edu",210987.21,0,0,2809986,3207604,1288573,0,2953135.35,NA,74795,79968,"968","NULL",968,10625048.56,10976.2898347107
"Bainbridge State College","GA",139010,581159210,1107400,NA,NA,"Public, 4-year or above",-84.535049,30.899474,"Decatur County",NA,NA,NA,0,0,0,2363419,2674033,0,0,4631271.72,NA,64825,70431,"2470","NULL",2470,9803979.72,3969.22255870445
"Bais HaMedrash and Mesivta of Baltimore","MD",476601,521980774,4188400,NA,NA,"Private not-for-profit, 4-year or above",-76.674414,39.379528,"Baltimore County",NA,NA,NA,0,0,0,NA,NA,NA,NA,189575,NA,6668,NA,"59","NULL",59,196243,3326.15254237288
"Bais Medrash Elyon","NY",245777,133728890,2622900,NA,NA,"Private not-for-profit, 4-year or above",-74.069798,41.114079,"Rockland County",NA,NA,NA,0,0,0,NA,NA,NA,NA,105623,NA,7200,NA,"68","34",102,112823,1106.10784313725
"Bais Medrash Toras Chesed","NJ",449658,226830873,4081300,NA,NA,"Private not-for-profit, 4-year or above",-74.21127,40.099704,"Ocean County",NA,NA,NA,0,0,0,NA,NA,NA,NA,210792.99,NA,6667,NA,"111","NULL",111,217459.99,1959.09900900901
"Baker College","MI",168847,380321740,467300,NA,NA,"Private not-for-profit, 4-year or above",-83.694679,42.974764,"Genesee County",NA,NA,NA,0,511944,0,47792700,59664037,4453414,764106,46454841,NA,1805551,1250369,"27101","578",27679,162696962,5877.99277430543
"Baker University","KS",154688,480543766,190300,190300,1903,"Private not-for-profit, 4-year or above",-95.188231,38.777278,"Douglas County","Heart of America Athletic Conference","Heart of America Athletic Conference","www.bakeru.edu",0,0,0,3740674,12486888,1697494,77579,2210529,554416,193200,83356,"1848","970",2818,21044136,7467.75585521647
"Bakersfield College","CA",109819,956006644,111800,NA,NA,"Public, 4-year or above",-118.973491,35.4108,"Kern County",NA,NA,NA,636937,0,0,1458814,1360428,3858,0,28323042.08,NA,713028,620327,"18698","NULL",18698,33116434.08,1771.12172852712
"Bakke Graduate University","TX",420705,911485907,3110800,NA,NA,"Private not-for-profit, 4-year or above",-96.753881,32.89442,"Dallas County",NA,NA,NA,0,0,0,0,289245,0,5426,NA,NA,NA,NA,"NULL","174",174,294671,1693.51149425287
"Baldwin Wallace University","OH",201195,340714629,301400,301400,3014,"Private not-for-profit, 4-year or above",-81.849112,41.373938,"Cuyahoga County","Ohio Athletic Conference","Ohio Athletic Conference","www.bw.edu",444619,0,0,9225979,13468717,9340962,1969205,5079535.15,630000,591859,1277094,"3362","627",3989,42027970.15,10535.9664452244
"Ball State University","IN",150136,356000221,178600,178600,1786,"Public, 4-year or above",-85.408863,40.198942,"Delaware County","Mid-American Conference","Mid-American Conference","www.bsu.edu",243706.5,1669342,0,32955800,73346577,23235354,2238122,23487341,1850840,958255,533527,"16415","4594",21009,160518864.5,7640.48096054072
"Baltimore City Community College","MD",161864,526002033,206100,206100,2061,"Public, 2-year",-76.662878,39.319978,"Baltimore City",NA,NA,"www.bccc.edu",708847,250000,0,NA,NA,NA,NA,7709603.13,NA,1053761,464240,"5269","NULL",5269,10186451.13,1933.27977415069
"Bank Street College of Education","NY",189015,135562167,266900,266900,2669,"Private not-for-profit, 4-year or above",-73.966643,40.805604,"New York County",NA,NA,"www.bankstreet.edu",890178,0,0,0,5318090,0,800945,NA,NA,NA,89172,"NULL","650",650,7098385,10920.5923076923
"Baptist Bible College","MO",176664,440567840,1320800,NA,NA,"Private not-for-profit, 4-year or above",-93.285385,37.239731,"Greene County",NA,NA,NA,0,0,0,904275,804716,368216,0,884646,NA,36240,49380,"317","53",370,3047473,8236.41351351351
"Baptist Memorial College of Health Sciences","TN",219639,621599670,3440300,NA,NA,"Private not-for-profit, 4-year or above",-90.027501,35.138415,"Shelby County",NA,NA,NA,0,0,0,3678458,5043366,942636,0,2483246,NA,75000,85789,"1170","NULL",1170,12308495,10520.0811965812
"Baptist Missionary Association Theological Seminary","TX",223117,750959996,2331200,NA,NA,"Private not-for-profit, 4-year or above",-95.255524,31.978961,"Cherokee County",NA,NA,NA,0,0,0,39838,155191,0,0,166962.81,NA,NA,NA,"58","68",126,361991.81,2872.95087301587
"Baptist Theological Seminary at Richmond","VA",366793,541510076,3116900,NA,NA,"Private not-for-profit, 4-year or above",-77.468483,37.632354,"Henrico County",NA,NA,NA,0,0,0,0,337451,0,16488,NA,NA,NA,NA,"NULL","70",70,353939,5056.27142857143
"Baptist University of the Americas","TX",444398,742599785,3733300,NA,NA,"Private not-for-profit, 4-year or above",-98.546081,29.34998,"Bexar County",NA,NA,NA,0,0,0,55293,22911,0,0,301911,NA,5413,5060,"174","NULL",174,390588,2244.75862068966
"Barclay College","KS",155070,480554341,191700,NA,NA,"Private not-for-profit, 4-year or above",-99.104027,37.620691,"Kiowa County",NA,NA,NA,0,0,0,744953,923878,18810,0,701948.12,NA,15363,54256,"227","37",264,2459208.12,9315.18227272727
"Bard College","NY",189088,141713034,267100,267100,2671,"Private not-for-profit, 4-year or above",-73.906243,42.021803,"Dutchess County",NA,"Upstate Collegiate Athletic Association","www.bard.edu",571328,519677,0,3710290,7031729,3715614,1520771,2147345.5,190191,255943,547558,"2112","290",2402,20210446.5,8414.00770191507
"Bard College at Simon's Rock","MA",167792,141713034,964500,NA,NA,"Private not-for-profit, 4-year or above",-73.380008,42.209241,"Berkshire County",NA,NA,NA,0,0,0,607750,470050,997707,0,245844,65000,80150,44373,"323","NULL",323,2510874,7773.60371517028
"Barnard College","NY",189097,131628149,270800,270800,2708,"Private not-for-profit, 4-year or above",-73.964027,40.809137,"New York County",NA,"Ivy Group","www.barnard.edu",552726,1706434,0,3209928,778206,5442892,0,1648252,28197,261683,296710,"2573","NULL",2573,13925028,5411.98134473377
"Barnes-Jewish College Goldfarb School of Nursing","MO",177719,430652644,638900,NA,NA,"Private not-for-profit, 4-year or above",-90.260648,38.636881,"St. Louis City",NA,NA,NA,0,0,0,3084715,4402724,1090990,128472,731421,NA,56280,33757,"592","89",681,9528359,13991.7165932452
"Barry University","FL",132471,590624364,146600,146600,1466,"Private not-for-profit, 4-year or above",-80.196136,25.878865,"Miami-Dade County",NA,"Sunshine State Conference","www.barry.edu",3020249,198164,5796,8916084,74907726,2940095,34133877,7920813.19,NA,338640,939104,"3996","4195",8191,133320548.19,16276.4678537419
"Barstow Community College","CA",109907,956006415,111900,NA,NA,"Public, 2-year",-117.02523,34.871451,"San Bernardino County",NA,NA,NA,0,0,0,NA,NA,NA,NA,7359999.13,NA,115548,110098,"3477","NULL",3477,7585645.13,2181.66382801265
"Barton College","NC",197911,560529933,290800,NA,NA,"Private not-for-profit, 4-year or above",-77.913805,35.735463,"Wilson County",NA,"Conference Carolinas",NA,0,0,0,3031026,3556932,3134625,0,2156432,38500,199000,121397,"1010","62",1072,12237912,11415.9626865672
"Barton County Community College","KS",154697,480720175,460800,460800,4608,"Public, 2-year",-98.731697,38.40331,"Barton County",NA,NA,"www.bartonccc.edu",1221828,0,73004.28,1285616,1361191,26111,0,2646908,NA,35072,48165,"5339","NULL",5339,6697895.28,1254.52243491291
"Bastyr University","WA",235547,911036794,2242500,NA,NA,"Private not-for-profit, 4-year or above",-122.251708,47.729935,"King County",NA,NA,NA,0,0,0,754787,30975329,166531,17319405,392839,157498,94082,276132,"279","1017",1296,50136603,38685.650462963
"Bates College","ME",160977,10211781,203600,203600,2036,"Private not-for-profit, 4-year or above",-70.203333,44.105299,NA,NA,NA,"www.bates.edu/",592192,105298,0,1095549,1197826,2632195,0,774534,10731,373229,379620,"1773","NULL",1773,7161174,4039.0152284264
"Bates Technical College","WA",235671,911526457,530600,NA,NA,"Public, 2-year",-122.446412,47.251531,"Pierce County",NA,NA,NA,0,0,0,601255,878200,55698,0,3407077.6,NA,125161,51251,"2907","NULL",2907,5118642.6,1760.79896800826
"Baton Rouge Community College","LA",437103,721334786,3730300,3730300,37303,"Public, 2-year",-91.137935,30.448276,"East Baton Rouge Parish",NA,NA,"www.mybrcc.edu",33201926.91,0,0,8061818,8204711,302667,0,16338155.87,NA,280413,259627,"7741","NULL",7741,66649318.78,8609.91070662705
"Baton Rouge General Medical Center-School of Nursing","LA",158325,721025017,2335700,NA,NA,"Private not-for-profit, 2-year",-91.152773,30.449731,"East Baton Rouge Parish",NA,NA,NA,0,0,0,253090,407443,28556,0,213598,NA,NA,NA,"69","NULL",69,902687,13082.4202898551
"Bay de Noc Community College","MI",168883,381711021,224000,NA,NA,"Public, 2-year",-87.080708,45.769714,"Delta County",NA,NA,NA,308661,0,0,1448944,1391775,9125,0,2649519,NA,58899,184021,"2019","NULL",2019,6050944,2997.0004952947
"Bay Mills Community College","MI",380359,382604866,3066600,3066600,30666,"Public, 2-year",-84.607089,46.454584,"Chippewa County",NA,NA,"www.bmcc.edu",2047244,366221,0,NA,NA,NA,NA,739334.89,NA,17850,17655,"555","NULL",555,3188304.89,5744.6934954955
"Bay Path University","MA",164632,42103865,212200,212200,2122,"Private not-for-profit, 4-year or above",-72.583974,42.055364,"Hampden County",NA,"New England Collegiate Conference","www.baypath.edu",0,0,0,4861895,25200419,1021878,7720586,4155086,184000,192689,243172,"1584","1251",2835,43579725,15372.037037037
"Baylor College of Medicine","TX",223223,741613878,494900,494900,4949,"Private not-for-profit, 4-year or above",-95.395743,29.7106,"Washington County",NA,NA,"www.bcm.edu",48511241.88,214083608.59,13298330.58,0,12421360,0,3288061,NA,1497723,NA,121062,"NULL","1572",1572,293221387.05,186527.59990458
"Baylor University","TX",223232,741159753,354500,354500,3545,"Private not-for-profit, 4-year or above",-97.119359,31.545956,"Washington County","Big Twelve Conference","Big Twelve Conference","www.baylor.edu",3409283,9124014.56,838850,22476531,35634493,39814324,10818223,11774853.58,854036,1182476,3649062,"13859","2598",16457,139576146.14,8481.26305766543
"BCI","MA",487782,465326273,4221500,NA,NA,"Private not-for-profit, less-than 2-year",-71.120116,42.333187,"Norfolk County",NA,NA,NA,0,0,0,180959,78172,0,0,395747,NA,NA,NA,NA,NA,NA,654878,NA
"Be'er Yaakov Talmudic Seminary","NY",476717,131338360,4192800,NA,NA,"Private not-for-profit, 4-year or above",-74.028425,41.13905,"Rockland County",NA,NA,NA,0,0,0,NA,NA,NA,NA,2755420,NA,10750,19738,"382","NULL",382,2785908,7292.95287958115
"Beacon College","FL",384254,592961536,3373300,NA,NA,"Private not-for-profit, 4-year or above",-81.875619,28.810799,"Lake County",NA,NA,NA,0,0,0,516118,498310,2104457,0,445335,NA,16623,22447,"223","NULL",223,3603290,16158.2511210762
"Beaufort County Community College","NC",197966,560894923,855800,NA,NA,"Public, 2-year",-76.96535,35.533587,"Beaufort County",NA,NA,NA,301646.82,0,0,NA,NA,NA,NA,1843817.99,NA,92975,75146,"2035","NULL",2035,2313585.81,1136.8972039312
"Beaumont Adult School","CA",449357,911883328,3999300,NA,NA,"Public, less-than 2-year",-116.964728,33.951365,"Riverside County",NA,NA,NA,0,0,0,266990,336072,7000,0,342400,NA,NA,NA,"143","NULL",143,952462,6660.57342657343
"Becker College","MA",164720,42108346,212300,212300,2123,"Private not-for-profit, 4-year or above",-71.811895,42.26918,"Worcester County","Eastern Collegiate Football Conference","New England Collegiate Conference","www.becker.edu",116667,0,0,5609642,5388144,9259248,6000,2965727.65,NA,125474,250602,"2021","5",2026,23721504.65,11708.5412882527
"Beis Medrash Heichal Dovid","NY",444413,113599905,3713300,NA,NA,"Private not-for-profit, 4-year or above",-74.159642,41.33127,"Orange County",NA,NA,NA,0,0,0,NA,NA,NA,NA,63520,NA,9712,NA,"93","20",113,73232,648.070796460177
"Belanger School of Nursing","NY",190956,141338428,644800,NA,NA,"Private not-for-profit, 2-year",-73.915884,42.802979,"Schenectady County",NA,NA,NA,0,0,0,247287,371409,0,0,162743.79,NA,NA,NA,"131","NULL",131,781439.79,5965.18923664122
"Belhaven University","MS",175421,640303069,239700,NA,NA,"Private not-for-profit, 4-year or above",-90.169228,32.318415,"Hinds County","American Southwest Conference","American Southwest Conference",NA,0,0,0,7160776,41678711,2819713,874252,5762989.85,NA,237285,364048,"2566","1700",4266,58897774.85,13806.3232184716
"Bellarmine University","KY",156286,610482955,195400,NA,NA,"Private not-for-profit, 4-year or above",-85.7049,38.219138,"Jefferson County",NA,"Great Lakes Valley Conference",NA,0,0,0,6048649,13333955,4044935,3852826,2860207.76,103500,195768,424253,"2585","1195",3780,30864093.76,8165.10416931217
"Bellevue College","WA",234669,910819265,376900,376900,3769,"Public, 4-year or above",-122.149955,47.584778,"King County",NA,NA,"bellevuecollege.edu",-1514945.03,0,0,2376912,3662385,38216,0,6336816.82,NA,218487,206948,"13469","NULL",13469,11324819.79,840.806280347465
"Bellevue University","NE",180814,470491571,974300,NA,NA,"Private not-for-profit, 4-year or above",-95.91764,41.150225,"Sarpy County",NA,"North Star Athletic Association",NA,0,0,0,11157184,40718612,710185,3590101,7655787,NA,269872,83399,"6291","3587",9878,64185140,6497.78700141729
"Bellin College","WI",238324,391620530,663900,NA,NA,"Private not-for-profit, 4-year or above",-87.921722,44.468277,"Brown County",NA,NA,NA,0,0,0,946828,1419211,377404,11100,266923,NA,14492,4019,"305","45",350,3039977,8685.64857142857
"Bellingham Technical College","WA",234696,911526618,499900,NA,NA,"Public, 4-year or above",-122.51216,48.766189,"Whatcom County",NA,NA,NA,655666,0,0,2086545,2817825,29520,0,5078578.01,NA,69600,48725,"2301","NULL",2301,10786459.01,4687.72664493698
"Belmont Abbey College","NC",197984,560547498,291000,NA,NA,"Private not-for-profit, 4-year or above",-81.041315,35.260651,"Gaston County",NA,"Conference Carolinas",NA,0,0,0,3711074,4097521,4707738,0,2508937,NA,115717,117405,"1560","NULL",1560,15258392,9781.02051282051
"Belmont College","OH",201283,310803587,994100,NA,NA,"Public, 2-year",-80.964901,40.07695,"Belmont County",NA,NA,NA,0,0,0,584675,976910,0,0,1818119,NA,60693,38290,"1042","NULL",1042,3478687,3338.47120921305
"Belmont University","TN",219709,620465076,347900,347900,3479,"Private not-for-profit, 4-year or above",-86.794715,36.133866,"Davidson County",NA,"Ohio Valley Conference","www.belmont.edu",0,0,16394.87,9133908,30726032,34136340,16687823,4495401.22,221400,271481,1054526,"5837","1367",7204,96743306.09,13429.1096737923
"Beloit College","WI",238333,390808497,383500,383500,3835,"Private not-for-profit, 4-year or above",-89.03147,42.50363,"Rock County","Midwest Conference","Midwest Conference","www.beloit.edu",645550,232265,0,2439146,1948496,1363362,0,1398520,183250,189935,297979,"1225","NULL",1225,8698503,7100.8187755102
"Bemidji State University","MN",173124,416007162,233600,233600,2336,"Public, 4-year or above",-94.874529,47.482505,"Beltrami County","Northern Sun Intercollegiate Conference","Northern Sun Intercollegiate Conference","www.bemidjistate.edu",1479078,232265,0,8179933,12880389,1059933,2000,6200854,747125,960203,383828,"4754","290",5044,32125608,6369.07375099128
"Ben Franklin Career Center","WV",237172,550697112,1274300,NA,NA,"Public, less-than 2-year",-81.75353,38.367234,"Kanawha County",NA,NA,NA,0,0,0,NA,NA,NA,NA,231137,NA,NA,NA,"435","NULL",435,231137,531.349425287356
"Benedict College","SC",217721,570314365,342000,342000,3420,"Private not-for-profit, 4-year or above",-81.021412,34.011285,"Richland County","Southern Intercollegiate Athletic Conf","Southern Intercollegiate Athletic Conf","www.benedict.edu",4830192,1008002,0,7389546,8416786,10405835,0,9487018,NA,490589,649545,"2444","NULL",2444,42677513,17462.1575286416
"Benedictine College","KS",154712,480777079,1025600,NA,NA,"Private not-for-profit, 4-year or above",-95.111424,39.572953,"Atchison County","Heart of America Athletic Conference","Heart of America Athletic Conference",NA,29000,0,0,3725143,4041890,5196554,0,1695287,413224,413165,382389,"2133","56",2189,15896652,7262.06121516674
"Benedictine University","IL",145619,362722198,176700,176700,1767,"Private not-for-profit, 4-year or above",-88.095948,41.776395,"Dupage County","Northern Athletics Collegiate Conference","Northern Athletics Collegiate Conference","www.ben.edu",0,0,0,8138176,34147203,6077679,1715075,5796397,448493,439800,348590,"3818","2607",6425,57111413,8888.93587548638
"Benjamin Franklin Institute of Technology","MA",165884,42103576,215100,215100,2151,"Private not-for-profit, 4-year or above",-71.070231,42.346023,"Suffolk County",NA,NA,"www.bfit.edu/",445043,0,0,1429695,1454478,247701,0,1861733,NA,35100,23744,"510","NULL",510,5497494,10779.4
"Bennett College","NC",197993,560532296,291100,291100,2911,"Private not-for-profit, 4-year or above",-79.77998,36.067531,"Guilford County",NA,NA,"www.bennett.edu",3155325.07,0,0,1503388,1384845,1686204,0,1608770,21000,147522,100207,"633","NULL",633,9607261.07,15177.3476619273
"Bennington College","VT",230816,30179414,368200,NA,NA,"Private not-for-profit, 4-year or above",-73.237799,42.919547,"Bennington County",NA,NA,NA,0,268940,0,1330285,1554695,1241220,1966,609670,NA,242997,228762,"660","97",757,5478535,7237.16644649934
"Bentley University","MA",164739,41081650,212400,212400,2124,"Private not-for-profit, 4-year or above",-71.220148,42.388798,"Middlesex County","Northeast 10 Conference","Northeast 10 Conference","www.bentley.edu",83436,0,3644,8526377,9564467,6446714,291374,2498599,833124,681955,1198711,"4264","1349",5613,30128401,5367.61108141814
"Berea College","KY",156295,610444650,195500,195500,1955,"Private not-for-profit, 4-year or above",-84.289332,37.573334,"Madison County",NA,"Independent Southeast Region","www.berea.edu",19415826.77,0,7135,277569,565720,4000,0,6720660.33,1691,541000,2725758,"1621","NULL",1621,30259360.1,18667.0944478717
"Bergen Community College","NJ",183743,221820506,473600,NA,NA,"Public, 2-year",-74.094086,40.953733,"Bergen County",NA,NA,NA,2146821,0,0,7307443,7922712,328767,0,19790222.26,NA,198639,296663,"15651","NULL",15651,37991267.26,2427.40190786531
"Bergin University of Canine Studies","CA",461643,680259118,4176300,NA,NA,"Private not-for-profit, 4-year or above",-122.721175,38.353867,"Sonoma County",NA,NA,NA,0,0,0,68077,200251,15287,1801,70953,NA,NA,NA,"43","33",76,356369,4689.06578947368
"Berkeley City College","CA",125170,941590799,2242700,NA,NA,"Public, 2-year",-122.269793,37.87047,"Alameda County",NA,NA,NA,-131671.42,0,0,472761,579328,20750,0,5352528.8,NA,144738,126853,"6378","NULL",6378,6565287.38,1029.36459391659
"Berklee College of Music","MA",164748,42300472,212600,212600,2126,"Private not-for-profit, 4-year or above",-71.08703,42.346895,"Suffolk County",NA,NA,"www.berklee.edu",0,0,0,8648644,12184504,24937311,1672886,4686272.5,157000,571625,433107,"4743","177",4920,53291349.5,10831.575101626
"Berks Career & Technology Center","PA",481021,231658882,4041300,NA,NA,"Public, less-than 2-year",-76.000808,40.388341,"Berks County",NA,NA,NA,0,0,0,33748,45786,4100,0,45840,NA,NA,NA,"65","NULL",65,129474,1991.90769230769
"Berkshire Community College","MA",164775,46002284,216700,216700,2167,"Public, 2-year",-73.318843,42.460877,"Berkshire County",NA,NA,"www.berkshirecc.edu",682123.7,0,0,1398801,1230171,6230,0,2896547.87,NA,69878,164123,"2230","NULL",2230,6447874.57,2891.42357399103
"Berry College","GA",139144,580566133,155400,NA,NA,"Private not-for-profit, 4-year or above",-85.189202,34.290414,"Floyd County","Southern Athletic Association","Southern Athletic Association",NA,0,0,0,3397134,4700344,4129877,17584,1961457,61369,131600,414969,"2085","122",2207,14814334,6712.43044857272
"Bet Medrash Gadol Ateret Torah","NY",485999,272128167,4227200,NA,NA,"Private not-for-profit, 4-year or above",-73.969945,40.607809,"Kings County",NA,NA,NA,0,0,0,NA,NA,NA,NA,357742,NA,7700,3282,"118","NULL",118,368724,3124.77966101695
"Beth Hamedrash Shaarei Yosher Institute","NY",189273,116030154,1119200,NA,NA,"Private not-for-profit, 4-year or above",-73.981088,40.635503,"Kings County",NA,NA,NA,0,0,0,NA,NA,NA,NA,145132,NA,35254,NA,"42","NULL",42,180386,4294.90476190476
"Beth Hatalmud Rabbinical College","NY",189264,111811853,1192200,NA,NA,"Private not-for-profit, 4-year or above",-73.993039,40.605394,"Kings County",NA,NA,NA,0,0,0,NA,NA,NA,NA,26071,NA,5749,NA,"29","NULL",29,31820,1097.24137931034
"Beth Medrash Govoha","NJ",183804,210634542,794700,NA,NA,"Private not-for-profit, 4-year or above",-74.220777,40.095461,"Ocean County",NA,NA,NA,0,0,0,NA,NA,NA,NA,9528410,5500,503409,469052,"2703","3832",6535,10506371,1607.70788064269
"Beth Medrash Meor Yitzchok","NY",486196,260623550,4210400,NA,NA,"Private not-for-profit, 4-year or above",-74.060843,41.100906,"Rockland County",NA,NA,NA,0,0,0,NA,NA,NA,NA,412344,NA,NA,NA,"166","NULL",166,412344,2484
"Beth Medrash of Asbury Park","NJ",488314,270694073,4251500,NA,NA,"Private not-for-profit, 4-year or above",-74.211131,40.04368,"Ocean County",NA,NA,NA,0,0,0,NA,NA,NA,NA,99042,NA,NA,NA,NA,NA,NA,99042,NA
"Bethany College","KS",154721,480543734,190400,NA,NA,"Private not-for-profit, 4-year or above",-97.673173,38.5786,"Mcpherson County","Kansas Collegiate Athletic Conf","Kansas Collegiate Athletic Conf",NA,0,0,0,1744966,1779698,1686959,0,1420774,268374,167378,74027,"717","NULL",717,7142176,9961.19386331939
"Bethany College","WV",237181,550356985,380800,NA,NA,"Private not-for-profit, 4-year or above",-80.560056,40.205819,"Brooke County","Presidents' Athletic Conference","Presidents' Athletic Conference",NA,0,0,0,1706428,1800217,1757038,0,1277873.27,813163,433944,142663,"727","27",754,7931326.27,10519.0003580902
"Bethany Global University","MN",486284,416110005,4227800,NA,NA,"Private not-for-profit, 4-year or above",-93.371754,44.795501,"Hennepin County",NA,NA,NA,0,0,0,410832,548439,81988,0,529065.79,NA,7002,NA,"115","24",139,1577326.79,11347.6747482014
"Bethany Lutheran College","MN",173142,410747165,233700,NA,NA,"Private not-for-profit, 4-year or above",-93.990744,44.166485,"Blue Earth County",NA,"Upper Midwest Athletic Conference",NA,0,0,0,1269317,971994,263332,0,714828,57875,51669,36807,"531","NULL",531,3365822,6338.64783427495
"Bethany Theological Seminary","IN",143233,352092595,163700,NA,NA,"Private not-for-profit, 4-year or above",-84.9099,39.8265,"Wayne County",NA,NA,NA,0,0,0,0,101928,0,0,NA,NA,NA,24255,"NULL","53",53,126183,2380.81132075472
"Bethel College","VA",458113,541851377,4153800,NA,NA,"Private not-for-profit, 4-year or above",-76.409141,37.04095,"Hampton City",NA,NA,NA,0,0,0,123130,172475,0,0,94860.14,NA,NA,NA,"57","NULL",57,390465.14,6850.26561403509
"Bethel College-Indiana","IN",150145,350935587,178700,NA,NA,"Private not-for-profit, 4-year or above",-86.194686,41.678399,"St. Joseph County",NA,"Crossroads League",NA,0,0,0,3954494,5192162,1953943,0,2622514.49,92280,117937,103901,"1600","230",1830,14037231.49,7670.61830054645
"Bethel College-North Newton","KS",154749,480543782,190500,NA,NA,"Private not-for-profit, 4-year or above",-97.342572,38.07525,"Harvey County","Kansas Collegiate Athletic Conf","Kansas Collegiate Athletic Conf",NA,0,0,0,1256113,1269766,866601,0,939395.2,159000,119023,138541,"483","NULL",483,4748439.2,9831.13706004141
"Bethel University","MN",173160,410708577,905800,905800,9058,"Private not-for-profit, 4-year or above",-93.159295,45.057091,"Ramsey County","Minnesota Intercollegiate Ath Conf","Minnesota Intercollegiate Ath Conf","https://www.bethel.edu",0,18200,0,6750635,18825959,4736303,677310,3284976,2000,443843,599447,"3014","969",3983,35338673,8872.37584735124
"Bethel University","TN",219718,620548913,348000,NA,NA,"Private not-for-profit, 4-year or above",-88.516162,36.139271,"Carroll County","Mid-South Conference","TranSouth Athletic Conference",NA,0,0,0,11685318,31885364,1325859,2825783,12125984.53,8500,422881,154312,"4792","1588",6380,60434001.53,9472.41403291536
"Bethesda University","CA",110060,953104298,3266300,NA,NA,"Private not-for-profit, 4-year or above",-117.941323,33.842295,"Orange County",NA,NA,NA,0,0,0,NA,NA,NA,NA,NA,NA,13900,8419,"269","85",354,22319,63.0480225988701
"Bethesda University","CA",110060,953104298,3266300,NA,NA,"Private not-for-profit, 4-year or above",-117.941323,33.842295,"Orange County",NA,NA,NA,0,0,0,393244,456519,20430,0,500181,NA,13900,8419,"269","85",354,1392693,3934.16101694915
"Bethune-Cookman University","FL",132602,590704726,146700,146700,1467,"Private not-for-profit, 4-year or above",-81.031429,29.210193,"Volusia County","Mid-Eastern Athletic Conference","Mid-Eastern Athletic Conference","www.cookman.edu",4951192,173750,0,10317997,11522249,9936402,0,13886480,NA,691429,442187,"3899","152",4051,51921686,12817.0046902
"Beulah Heights University","GA",139153,586050244,3076300,NA,NA,"Private not-for-profit, 4-year or above",-84.358086,33.737022,"Fulton County",NA,NA,NA,0,0,0,825851,3070132,18803,198533,839349.58,NA,23134,31611,"454","214",668,5007413.58,7496.12811377246
"Bevill State Community College","AL",102429,631102108,573300,573300,5733,"Public, 2-year",-87.265034,33.835785,"Walker County",NA,NA,"www.bscc.edu",3558892,0,0,NA,NA,NA,NA,7787499.03,NA,118973,96054,"3609","NULL",3609,11561418.03,3203.49626766417
"Biblical Theological Seminary","PA",211130,231937954,2323000,NA,NA,"Private not-for-profit, 4-year or above",-75.303897,40.281414,"Montgomery County",NA,NA,NA,0,0,0,0,1250896,0,67101,NA,NA,NA,NA,"NULL","258",258,1317997,5108.51550387597
"Big Bend Community College","WA",234711,910826741,377000,377000,3770,"Public, 2-year",-119.318507,47.185083,NA,NA,NA,"www.bigbend.edu/",2911033,0,-3308,895260,836977,203616,0,3675608.06,NA,60264,48806,"2016","NULL",2016,8628256.06,4279.88891865079
"Big Sandy Community and Technical College","KY",157553,611320380,199600,199600,1996,"Public, 2-year",-82.77839,37.687585,"Floyd County",NA,NA,"www.bigsandy.kctcs.edu",0,0,0,3137494,2370903,3400,0,9143919.56,NA,215508,164225,"4638","NULL",4638,15035449.56,3241.79593790427
"Birmingham Southern College","AL",100937,630708730,101200,101200,1012,"Private not-for-profit, 4-year or above",-86.850552,33.513774,"Jefferson County","Southern Athletic Association","Southern Athletic Association","www.bsc.edu/",0,0,0,1799192,1926155,2891047,0,1163359.91,166169,141048,202467,"1185","NULL",1185,8289437.91,6995.30625316456
"Birthingway College of Midwifery","OR",442949,931226663,3668300,NA,NA,"Private not-for-profit, 4-year or above",-122.538471,45.476809,"Multnomah County",NA,NA,NA,0,0,0,147879,245338,0,0,119027,NA,6667,NA,"76","NULL",76,518911,6827.77631578947
"Bishop State Community College","AL",102030,630507477,103000,103000,1030,"Public, 2-year",-88.056982,30.693972,"Mobile County",NA,NA,"www.bishop.edu",3466097,0,3000,NA,NA,NA,NA,8599392.03,NA,148950,177582,"3320","NULL",3320,12395021.03,3733.44006927711
"Bismarck State College","ND",200022,450343495,298800,298800,2988,"Public, 4-year or above",-100.816534,46.821459,"Burleigh County",NA,NA,"www.bismarckstate.edu",102814.67,0,0,2203506,5058415,82102,0,2545298,NA,87700,16637,"4002","NULL",4002,10096472.67,2522.85673913043
"Black Hawk College","IL",143279,362482309,163800,NA,NA,"Public, 2-year",-90.449497,41.475983,"Rock Island County",NA,NA,NA,292911.44,0,0,998526,1199652,88789,0,5523187,NA,129814,136085,"6307","NULL",6307,8368964.44,1326.93268431901
"Black Hills State University","SD",219046,466000364,345900,345900,3459,"Public, 4-year or above",-103.870966,44.494889,"Lawrence County","Rocky Mountain Athletic Conference","Rocky Mountain Athletic Conference","www.bhsu.edu",449002.44,784917,73993,5997413,7888208,1006493,0,4782638.13,224300,165519,389912,"4020","499",4519,21762395.57,4815.75471785793
"Black River Technical College","AR",106625,710416918,2052200,NA,NA,"Public, 2-year",-90.951033,36.239793,"Randolph County",NA,NA,NA,0,197938,0,1071439,964260,0,0,3661495.81,NA,NA,NA,"1963","NULL",1963,5895132.81,3003.12420275089
"Blackburn College","IL",143288,370661491,163900,NA,NA,"Private not-for-profit, 4-year or above",-89.872248,39.288298,"Macoupin County",NA,"St. Louis Intercollegiate Ath Conf",NA,0,0,0,1472969,1082681,406747,0,1602044.04,NA,40671,NA,"585","NULL",585,4605112.04,7871.98639316239
"Blackfeet Community College","MT",180054,810378943,2510600,2510600,25106,"Private not-for-profit, 2-year",-113.009387,48.551927,"Glacier County",NA,NA,"bfcc.edu",5766829,99000,0,NA,NA,NA,NA,1318365,NA,20000,14102,"495","NULL",495,7218296,14582.4161616162
"Blackhawk Technical College","WI",238397,391104235,539000,NA,NA,"Public, 2-year",-89.016161,42.593217,"Rock County",NA,NA,NA,0,0,0,2251669,1491333,0,0,4009771,NA,95876,98573,"2471","NULL",2471,7947222,3216.19668150546
"Blackstone Valley Vocational Regional School District","MA",457615,42317111,1218700,NA,NA,"Public, less-than 2-year",-71.617021,42.16283,"Worcester County",NA,NA,NA,0,0,0,79556,141337,0,0,92193,NA,NA,NA,"49","NULL",49,313086,6389.51020408163
"Bladen Community College","NC",198011,560894927,798700,NA,NA,"Public, 2-year",-78.731119,34.644691,"Bladen County",NA,NA,NA,0,0,0,NA,NA,NA,NA,2765376.21,NA,60000,51218,"1334","NULL",1334,2876594.21,2156.36747376312
"Blinn College","TX",223427,746000400,354900,NA,NA,"Public, 2-year",-96.409677,30.159713,"Washington County",NA,NA,NA,0,0,122132.55,14490377,15018979,2686761,0,19048530.54,NA,366269,221255,"19479","NULL",19479,51954304.09,2667.19565121413
"Bloomfield College","NJ",183822,221494428,259700,259700,2597,"Private not-for-profit, 4-year or above",-74.19593,40.794218,"Essex County",NA,"Central Atlantic Collegiate Conf","www.bloomfield.edu/",860150.05,232265,0,4303662,3913485,3574805,0,4898708.37,NA,240715,153458,"1969","2",1971,18177248.42,9222.34825976662
"Bloomsburg University of Pennsylvania","PA",211158,232738930,331500,331500,3315,"Public, 4-year or above",-76.446383,41.007989,"Columbia County","Pennsylvania State Athletic Conference","Pennsylvania State Athletic Conference","www.bloomu.edu",705462,0,0,21130461,27259225,17207618,319815,12760839,29949,317416,789233,"9319","618",9937,80520018,8103.05102143504
"Blue Hills Regional Technical School","MA",243799,42379358,552300,NA,NA,"Public, less-than 2-year",-71.103893,42.181648,"Norfolk County",NA,NA,NA,0,0,0,110874,202341,26056,0,94711.5,NA,NA,NA,"61","NULL",61,433982.5,7114.46721311475
"Blue Mountain College","MS",175430,640325640,239800,NA,NA,"Private not-for-profit, 4-year or above",-89.02924,34.67209,"Tippah County",NA,"Southern States Athletic Conference",NA,0,0,0,1034421,1223389,166617,0,1281559.06,NA,30518,51788,"520","26",546,3788292.06,6938.26384615385
"Blue Mountain Community College","OR",208275,930506536,318600,NA,NA,"Public, 2-year",-118.816944,45.677313,"Umatilla County",NA,NA,NA,241247.17,0,0,854683,972856,3000,0,2462667.69,NA,69450,48120,"1731","NULL",1731,4652023.86,2687.47767764298
"Blue Ridge Community College","NC",198039,560941830,968400,NA,NA,"Public, 2-year",-82.425544,35.30804,"Henderson County",NA,NA,NA,0,0,0,871257,1168479,0,0,2601877.34,NA,70250,47135,"2215","NULL",2215,4758998.34,2148.53198194131
"Blue Ridge Community College","VA",231536,541268283,681900,NA,NA,"Public, 2-year",-78.939038,38.279582,"Augusta County",NA,NA,NA,0,0,0,1528572,1671212,56126,0,7367974,NA,101535,89219,"4388","NULL",4388,10814638,2464.59389243391
"Bluefield College","VA",231554,540568200,370300,NA,NA,"Private not-for-profit, 4-year or above",-81.246233,37.244557,"Tazewell County","Mid-South Conference","Mid-South Conference",NA,0,0,0,2588046,3551155,987040,0,2220919,NA,69788,59485,"928","17",945,9476433,10027.9714285714
"Bluefield State College","WV",237215,556000751,380900,380900,3809,"Public, 4-year or above",-81.235428,37.26688,"Mercer County",NA,"Independent Southeast Region","www.bluefieldstate.edu",2390934,0,0,2652315,3252330,163420,0,3608322,NA,71066,140269,"1563","NULL",1563,12278656,7855.82597568778
"Bluegrass Community and Technical College","KY",156392,611320380,524400,524400,5244,"Public, 2-year",-84.502338,38.024467,"Fayette County",NA,NA,"www.bluegrass.kctcs.edu/",0,0,0,7532255,7148430,361542,0,15513415.5,NA,538584,195853,"10952","NULL",10952,31290079.5,2857.01967677137
"Bluffton University","OH",201371,344428207,301600,NA,NA,"Private not-for-profit, 4-year or above",-83.897678,40.896998,"Allen County","Heartland Collegiate Athletic Conference","Heartland Collegiate Athletic Conference",NA,0,0,0,2343940,2434124,2362505,0,1373952,221670,132634,519045,"997","101",1098,9387870,8549.97267759563
"Board of Trustees-Mississippi State Institutions of Higher Learning","MS",175999,646000783,876400,NA,NA,"Administrative Unit",-90.144689,32.338859,"Hinds County",NA,NA,NA,561675.03,0,0,NA,NA,NA,NA,NA,NA,NA,NA,NA,NA,NA,561675.03,NA
"Boise Bible College","ID",142090,820309302,2234500,NA,NA,"Private not-for-profit, 4-year or above",-116.290607,43.657437,"Ada County",NA,NA,NA,0,0,0,241610,167533,61505,0,297241.62,NA,10500,NA,"173","NULL",173,778389.62,4499.36196531792
"Boise State University","ID",142115,820290701,161600,161600,1616,"Public, 4-year or above",-116.205789,43.604403,"Ada County","Mountain West Conference","Mountain West Conference","www.boisestate.edu",9848365.07,20949962.39,405538,25483940,44586736,8405433,558658,22275989,2137788,585562,386507,"19351","2983",22334,135624478.46,6072.55657114713
"Bon Secours Memorial College of Nursing","VA",233356,541744931,1004300,NA,NA,"Private not-for-profit, 4-year or above",-77.433191,37.646876,"Henrico County",NA,NA,NA,0,0,0,873347,1173730,30008,0,252163.61,NA,19057,22284,"487","NULL",487,2370589.61,4867.74047227926
"Bon Secours St Mary's Hospital School of Medical Imaging","VA",233480,540793767,2358500,NA,NA,"Private not-for-profit, less-than 2-year",-77.433133,37.646799,"Henrico County",NA,NA,NA,0,0,0,65625,79212,0,0,18255,NA,NA,NA,"31","NULL",31,163092,5261.03225806452
"Boricua College","NY",189413,510175975,1302900,NA,NA,"Private not-for-profit, 4-year or above",-73.9458,40.833434,"New York County",NA,NA,NA,0,0,0,617887,1259781,0,0,4179937.35,NA,111633,178474,"1104","70",1174,6347712.35,5406.91000851789
"Bossier Parish Community College","LA",158431,721380259,2055400,2055400,20554,"Public, 2-year",-93.646881,32.539551,NA,NA,NA,"www.bpcc.edu",-800952.78,0,0,11751199,14058882,182217,0,15613435.66,NA,311548,136082,"8580","NULL",8580,41252410.88,4807.9732960373
"Boston Architectural College","MA",164872,42271070,396600,NA,NA,"Private not-for-profit, 4-year or above",-71.085851,42.34867,"Suffolk County",NA,NA,NA,528684,0,0,573959,4529637,617294,1331809,386435,NA,60200,74115,"470","380",850,8102133,9531.92117647059
"Boston Baptist College","MA",164614,42970445,3248300,NA,NA,"Private not-for-profit, 4-year or above",-71.1103,42.254037,"Suffolk County",NA,NA,NA,0,0,0,162927,157562,15000,0,139543,NA,5600,7129,"86","NULL",86,487761,5671.63953488372
"Boston College","MA",164924,42103545,212800,212800,2128,"Private not-for-profit, 4-year or above",-71.171488,42.337688,"Middlesex County","Atlantic Coast Conference","Atlantic Coast Conference","www.bc.edu",7229502.81,17693940.25,2522416.59,12987513,35224119,16909929,15255598,2973465,1293441,1935333,3159613,"9704","4558",14262,117184870.65,8216.58046907867
"Boston Graduate School of Psychoanalysis Inc","MA",164915,237410494,3194300,NA,NA,"Private not-for-profit, 4-year or above",-71.133025,42.339481,"Norfolk County",NA,NA,NA,0,0,0,0,566565,0,241339,NA,NA,NA,NA,"NULL","143",143,807904,5649.67832167832
"Boston University","MA",164988,42103547,213000,213000,2130,"Private not-for-profit, 4-year or above",-71.09984,42.349581,"Suffolk County",NA,"Patriot League","www.bu.edu",104332362.32,225456559.45,10248160.01,25332553,135432275,29233902,67225750,11763620,5407406,3697167,5334519,"18017","14226",32243,623464273.78,19336.4225965326
"Bowdoin College","ME",161004,10215213,203800,203800,2038,"Private not-for-profit, 4-year or above",-69.963942,43.907134,"Cumberland County","New England Small College Ath Conf","New England Small College Ath Conf","www.bowdoin.edu/",715051,1282745,0,973421,1183809,2887737,0,1284910,378529,470045,630744,"1805","NULL",1805,9806991,5433.23601108033
"Bowie State University","MD",162007,526002033,206200,206200,2062,"Public, 4-year or above",-76.759721,39.018185,"Prince George'S County","Central Intercollegiate Athletic Assoc","Central Intercollegiate Athletic Assoc","www.bowiestate.edu",7817519,1139557,0,11010090,19867767,6979055,453040,12292859,NA,211379,163769,"4456","1115",5571,59935035,10758.3979536887
"Bowling Green State University-Main Campus","OH",201441,346402018,301800,301800,3018,"Public, 4-year or above",-83.637531,41.377036,"Wood County","Mid-American Conference","Mid-American Conference","www.bgsu.edu",2183674.43,3972078.04,34416,31086583,49445147,37716620,299205,21768689,1047908,873689,944484,"14099","2574",16673,149372493.47,8958.94520902057
"Bradford-Union Technical Center","FL",132675,596000518,3382300,NA,NA,"Public, 2-year",-82.117224,29.952308,"Bradford County",NA,NA,NA,0,0,0,NA,NA,NA,NA,264185.39,NA,NA,NA,"213","NULL",213,264185.39,1240.30699530516
"Bradley University","IL",143358,370661494,164100,164100,1641,"Private not-for-profit, 4-year or above",-89.61462,40.697605,"Peoria County",NA,"Missouri Valley Conference","www.bradley.edu",-10.58,331988,0,10575887,19975067,14489055,1227301,5225470,951408,779728,272405,"4588","899",5487,53828298.42,9810.15097867687
"Bramson ORT College","NY",189422,133036302,2106800,NA,NA,"Private not-for-profit, 2-year",-73.847799,40.721403,"Queens County",NA,NA,NA,0,0,0,159722,157204,13500,0,735167,NA,NA,NA,"641","NULL",641,1065593,1662.39157566303
"Brandeis University","MA",165015,42103552,213300,213300,2133,"Private not-for-profit, 4-year or above",-71.254716,42.364947,"Middlesex County",NA,"University Athletic Association","www.brandeis.edu/",4523885.24,31930080.68,122743,6178853,10342841,4718166,2856377,3064684,376886,868997,1150179,"3715","2131",5846,66133691.92,11312.6397399932
"Brandman University","CA",262086,260152908,4161800,NA,NA,"Private not-for-profit, 4-year or above",-117.769012,33.656401,"Orange County",NA,NA,NA,0,0,0,11629392,58353822,366113,9922996,6337067.01,NA,246111,30523,"3990","4178",8168,86886024.01,10637.3682676298
"Brazosport College","TX",223506,741587881,728700,NA,NA,"Public, 4-year or above",-95.409004,29.04836,"Brazoria County",NA,NA,NA,0,0,0,196791,47828,0,0,1467585.86,NA,135700,129801,"4155","NULL",4155,1977705.86,475.982156438026
"Brenau University","GA",139199,580566143,155600,NA,NA,"Private not-for-profit, 4-year or above",-83.821513,34.303117,"Hall County",NA,"Southern States Athletic Conference",NA,0,0,0,5417721,25346142,1628073,6500093,4042772.59,9500,243056,174419,"1596","1311",2907,43361776.59,14916.3318163055
"Brescia University","KY",156356,610660795,195800,195800,1958,"Private not-for-profit, 4-year or above",-87.111533,37.768989,"Daviess County",NA,"River States","www.brescia.edu",439856.87,0,0,2422332,4087117,909947,20780,2221403,19071,94207,61763,"972","18",990,10276476.87,10380.2796666667
"Brevard College","NC",198066,560532297,291200,NA,NA,"Private not-for-profit, 4-year or above",-82.729763,35.237657,"Transylvania County","South Atlantic Conference","South Atlantic Conference",NA,0,149455,0,1531830,1367067,1791473,0,1221707,24581,39000,54448,"705","NULL",705,6179561,8765.33475177305
"Brewster Technical College","FL",367875,596000660,2601600,NA,NA,"Public, 2-year",-82.461722,27.96373,"Hillsborough County",NA,NA,NA,2390544.35,0,0,NA,NA,NA,NA,NA,NA,18939,10500,"270","NULL",270,2419983.35,8962.9012962963
"Brewster Technical College","FL",367875,596000660,2601600,NA,NA,"Public, 2-year",-82.461722,27.96373,"Hillsborough County",NA,NA,NA,2390544.35,0,0,NA,NA,NA,NA,524570.27,NA,18939,10500,"270","NULL",270,2944553.62,10905.7541481481
"Brewton-Parker College","GA",139205,580619030,155700,NA,NA,"Private not-for-profit, 4-year or above",-82.586136,32.185718,"Montgomery County",NA,"Southern States Athletic Conference",NA,0,0,0,1382098,1461156,794636,0,1424115.47,NA,118450,112484,"638","NULL",638,5292939.47,8296.14336990596
"Briar Cliff University","IA",152992,420707124,184600,184600,1846,"Private not-for-profit, 4-year or above",-96.42696,42.526919,"Woodbury County","Great Plains Athletic Conference","Great Plains Athletic Conference","www.briarcliff.edu",805283.25,0,0,2537279,5553559,1121843,1608166,1877079.98,277050,180000,169044,"1041","127",1168,14129304.23,12097.0070462329
"Bridgeport Hospital School of Nursing","CT",128726,60646554,618100,NA,NA,"Private not-for-profit, less-than 2-year",-73.165185,41.189413,"Fairfield County",NA,NA,NA,0,0,0,168004,239264,0,0,75720.05,NA,12491,NA,"189","NULL",189,495479.05,2621.58227513227
"Bridgerland Applied Technology College","UT",230010,870294483,2115400,NA,NA,"Public, 2-year",-111.850619,41.756188,"Cache County",NA,NA,NA,0,0,0,NA,NA,NA,NA,931416,NA,NA,NA,"1554","NULL",1554,931416,599.366795366795
"BridgeValley Community & Technical College","WV",484932,465109796,4038600,NA,NA,"Public, 2-year",-81.6983,38.353846,"Kanawha County",NA,NA,NA,0,0,0,1470066,1713721,27854,0,3713757.01,NA,84740,76761,"2344","NULL",2344,7086899.01,3023.42107935154
"Bridgewater College","VA",231581,540506306,370400,NA,NA,"Private not-for-profit, 4-year or above",-78.969011,38.378391,"Rockingham County","Old Dominion Athletic Conference","Old Dominion Athletic Conference",NA,0,0,0,4351978,4747273,4923261,44971,2550466.15,699015,150200,252929,"1785","NULL",1785,17720093.15,9927.22305322129
"Bridgewater State University","MA",165024,46002284,218300,NA,NA,"Public, 4-year or above",-70.974553,41.98749,"Plymouth County","New England Football Conference","Massachusetts State College Ath Assoc",NA,48870,1000000,0,21198219,27878245,6448870,0,13373327,NA,332267,624481,"9628","1481",11109,70904279,6382.59780358268
"Brigham Young University-Hawaii","HI",230047,990083825,160600,NA,NA,"Private not-for-profit, 4-year or above",-157.925358,21.641172,"Honolulu County",NA,"Pacific West Conference",NA,0,0,0,1445703,597759,29500,0,2925568.19,NA,NA,NA,"2787","NULL",2787,4998530.19,1793.51639397201
"Brigham Young University-Idaho","ID",142522,820207699,162500,NA,NA,"Private not-for-profit, 4-year or above",-111.782431,43.818408,"Madison County",NA,NA,NA,0,0,0,36516450,27007372,178294,0,63197703.84,NA,NA,NA,"36624","NULL",36624,126899819.84,3464.93610310179
"Brigham Young University-Provo","UT",230038,870217280,367000,367000,3670,"Private not-for-profit, 4-year or above",-111.649281,40.250851,"Utah County","Other","West Coast Conference","www.byu.edu",2189705.36,13034164.38,782600.31,16361403,26206057,546274,887792,54540742.37,NA,NA,NA,"27163","3248",30411,114548738.42,3766.68765972839
"Brighton Center's Center for Employment Training","KY",442976,610673886,3611300,NA,NA,"Private not-for-profit, less-than 2-year",-84.490127,39.092551,"Campbell County",NA,NA,NA,428263,0,0,NA,NA,NA,NA,346787,NA,14892,11680,"172","NULL",172,801622,4660.59302325581
"Bristol Community College","MA",165033,46278794,217600,217600,2176,"Public, 2-year",-71.120263,41.721337,"Bristol County",NA,NA,"www.bristolcc.edu",1053879,0,0,3231065,4738079,15697,0,15043417.2,NA,234975,236472,"9189","NULL",9189,24553584.2,2672.06270540864
"Brookdale Community College","NJ",183859,221849485,840400,NA,NA,"Public, 2-year",-74.132746,40.324906,"Monmouth County",NA,NA,NA,0,0,0,3832985,4208335,148985,0,13944379.89,NA,641867,201578,"14144","NULL",14144,22978129.89,1624.58497525453
"Brookhaven College","TX",223524,751213149,2100200,NA,NA,"Public, 2-year",-96.85016,32.928237,"Dallas County",NA,NA,NA,645505,0,0,2482993,2889636,0,0,6581898.01,NA,NA,NA,"12403","NULL",12403,12600032.01,1015.88583487866
"Brooklyn Law School","NY",189501,237227990,267700,NA,NA,"Private not-for-profit, 4-year or above",-73.990535,40.692662,"Kings County",NA,NA,NA,0,0,0,0,15244522,0,14855234,NA,NA,NA,498515,"NULL","1175",1175,30598271,26041.0817021277
"Broome Delaware Tioga BOCES-Practical Nursing Program","NY",418010,156008639,2153600,NA,NA,"Public, less-than 2-year",-75.934739,42.129648,"Broome County",NA,NA,NA,-20766.43,0,0,108628,144635,12100,0,153125.7,NA,NA,NA,"65","NULL",65,397722.27,6118.80415384615
"Broward College","FL",132709,591216107,150000,150000,1500,"Public, 4-year or above",-80.14183,26.119422,"Broward County",NA,NA,"www.broward.edu",1179255,0,4130,19109543,2172115,105201,0,97865749.35,NA,1346564,854797,"44119","NULL",44119,122637354.35,2779.69478795984
"Brown University","RI",217156,50258809,340100,340100,3401,"Private not-for-profit, 4-year or above",-71.40385,41.82617,"Providence County","Ivy Group","Ivy Group","www.brown.edu",17360526.72,112529112.66,7057258.29,6108571,19320150,9987142,5775574,4721941,2825315,1088250,1803418,"6548","2806",9354,188577258.67,20160.0661396194
"Brunswick Community College","NC",198084,561255943,2170700,NA,NA,"Public, 2-year",-78.22979,34.038973,"Brunswick County",NA,NA,NA,0,0,0,NA,NA,NA,NA,2193702.57,NA,38685,20452,"1814","NULL",1814,2252839.57,1241.9181753032
"Bryan College of Health Sciences","NE",180878,470376552,639900,NA,NA,"Private not-for-profit, 4-year or above",-96.651532,40.796768,"Lancaster County",NA,NA,NA,238706,0,0,1485282,2928728,860397,976486,694517,NA,NA,32618,"617","90",707,7216734,10207.5445544554
"Bryan College-Dayton","TN",219790,620528217,353600,NA,NA,"Private not-for-profit, 4-year or above",-84.999552,35.497209,"Rhea County",NA,"Appalachian Athletic Conference",NA,0,0,0,1944623,2618501,794488,0,1946582.64,140009,92425,198917,"1506","98",1604,7735545.64,4822.6593765586
"Bryant University","RI",217165,50258810,340200,340200,3402,"Private not-for-profit, 4-year or above",-71.539547,41.920092,"Providence County","Northeast Conference","Northeast Conference","www.bryant.edu",395966,0,0,6968171,8676974,8415937,1555867,2035025,858374,316276,423468,"3320","211",3531,29646058,8395.93826111583
"Bryn Athyn College of the New Church","PA",210492,231433899,322800,NA,NA,"Private not-for-profit, 4-year or above",-75.06093,40.131358,"Montgomery County",NA,"North Eastern Athletic Conference",NA,0,0,0,687298,597839,595187,0,572049,NA,14883,12671,"273","4",277,2479927,8952.80505415162
"Bryn Mawr College","PA",211273,231352621,323700,323700,3237,"Private not-for-profit, 4-year or above",-75.314988,40.028541,"Montgomery County",NA,"Centennial Conference","www.brynmawr.edu",67716,811280.1,0,2225075,4177469,2073857,339572,1038224,47410,175800,583877,"1308","346",1654,11540280.1,6977.19474002418
"Buckeye Hills Career Center","OH",201478,310794843,2073300,NA,NA,"Public, less-than 2-year",-82.388043,38.892181,"Gallia County",NA,NA,NA,0,0,0,174347,243636,0,0,332305.47,NA,NA,NA,"168","NULL",168,750288.47,4466.00279761905
"Buckeye Joint Vocational School","OH",383312,341089502,3065900,NA,NA,"Public, less-than 2-year",-81.401957,40.470531,"Tuscarawas County",NA,NA,NA,0,0,0,NA,NA,NA,NA,337660.24,NA,NA,NA,"95","NULL",95,337660.24,3554.31831578947
"Bucknell University","PA",211291,240772407,323800,323800,3238,"Private not-for-profit, 4-year or above",-76.882616,40.954317,"Union County","Patriot League","Patriot League","www.bucknell.edu",16318.56,1376107,0,4133233,3351867,6694682,0,1657449,221468,315923,371112,"3565","56",3621,18138159.56,5009.15756973212
"Bucks County Community College","PA",211307,231646982,323900,323900,3239,"Public, 2-year",-74.965841,40.239102,"Bucks County",NA,NA,"www.bucks.edu/",15000,0,209105.58,2639795,4508760,82628,0,7570811,NA,662059,251083,"9155","NULL",9155,15939241.58,1741.04222610595
"Buena Vista University","IA",153001,420680404,184700,NA,NA,"Private not-for-profit, 4-year or above",-95.208529,42.642255,"Buena Vista County","Iowa Intercollegiate Athletic Conf","Iowa Intercollegiate Athletic Conf",NA,0,647705,0,6341314,8762218,1573698,4723,4148723.5,377350,188576,206667,"2035","346",2381,22250974.5,9345.22238555229
"Bullard-Havens Technical High School","CT",417187,66000798,1149600,NA,NA,"Public, less-than 2-year",-73.164171,41.199127,"Fairfield County",NA,NA,NA,0,0,0,NA,NA,NA,NA,25050.5,NA,NA,NA,"18","NULL",18,25050.5,1391.69444444444
"Bunker Hill Community College","MA",165112,46002284,1121000,1121000,11210,"Public, 2-year",-71.069263,42.374806,"Suffolk County",NA,NA,"www.bhcc.mass.edu",285155,649894,0,NA,NA,NA,NA,NA,NA,555496,394765,"14253","NULL",14253,1885310,132.274608854276
"Bunker Hill Community College","MA",165112,46002284,1121000,1121000,11210,"Public, 2-year",-71.069263,42.374806,"Suffolk County",NA,NA,"www.bhcc.mass.edu",285155,649894,0,2632895,2463038,44896,0,22833651.28,NA,555496,394765,"14253","NULL",14253,29859790.28,2094.98283028134
"Butler Community College","KS",154800,480690383,190600,190600,1906,"Public, 2-year",-96.882718,37.806377,"Butler County",NA,NA,"www.butlercc.edu/",0,0,0,7592160,8185120,138160,0,11227990,NA,187973,213684,"9003","NULL",9003,27545087,3059.5453737643
"Butler County Community College","PA",211343,251154027,324000,NA,NA,"Public, 2-year",-79.911433,40.829364,"Butler County",NA,NA,NA,0,0,0,1010062,1831907,105231,0,4867176.97,NA,83957,106768,"3636","NULL",3636,8005101.97,2201.62320407041
"Butler Tech-D Russel Lee Career Center","OH",201496,310826922,2192100,NA,NA,"Public, less-than 2-year",-84.49281,39.408939,"Butler County",NA,NA,NA,0,0,0,343631,653081,131053,0,475535.39,NA,NA,NA,"416","NULL",416,1603300.39,3854.08747596154
"Butler University","IN",150163,350867974,178800,178800,1788,"Private not-for-profit, 4-year or above",-86.171791,39.840662,"Marion County","Pioneer Football League","Big East Conference","www.butler.edu",439909,-611,0,7428665,15273121,12824626,2950505,2561107,1432510,471462,442390,"4062","769",4831,43823684,9071.34837507762
"Butte College","CA",110246,941637174,807300,807300,8073,"Public, 2-year",-121.644691,39.649116,"Butte County",NA,NA,"www.butte.edu",15000,0,0,2726418,2114670,159420,0,18585973.46,NA,275580,265129,"12157","NULL",12157,24142190.46,1985.86743933536
"Butte County Regional Occupational Program","CA",487773,946002433,4220500,NA,NA,"Public, less-than 2-year",-121.804531,39.71598,"Butte County",NA,NA,NA,0,0,0,40246,52274,0,0,138635.99,NA,NA,NA,NA,NA,NA,231155.99,NA
"Byzantine Catholic Seminary of Saints Cyril and Methodius","PA",444103,251141842,4118000,NA,NA,"Private not-for-profit, 4-year or above",-80.015825,40.484409,"Allegheny County",NA,NA,NA,0,0,0,0,10250,0,0,NA,NA,NA,NA,"NULL","17",17,10250,602.941176470588
"CAAN Academy of Nursing","IL",487968,30486416,4242800,NA,NA,"Private not-for-profit, 2-year",-87.731631,41.50485,"Cook County",NA,NA,NA,0,0,0,82348,155075,3160,0,175980,NA,NA,NA,NA,NA,NA,416563,NA
"Cabrillo College","CA",110334,946002633,112400,112400,1124,"Public, 2-year",-121.927926,36.9891,"Santa Cruz County",NA,NA,"www.cabrillo.edu",1611227,0,0,795025,829039,0,0,10205051.93,NA,306800,252664,"13594","NULL",13594,13999806.93,1029.85191481536
"Cabrini University","PA",211352,231526668,324100,324100,3241,"Private not-for-profit, 4-year or above",-75.375263,40.056355,"Delaware County",NA,"Colonial States Athletic Conference","www.cabrini.edu",-18420.94,0,0,NA,NA,NA,NA,NA,113100,100595,224113,"1406","851",2257,419387.06,185.816154186974
"Cabrini University","PA",211352,231526668,324100,324100,3241,"Private not-for-profit, 4-year or above",-75.375263,40.056355,"Delaware County",NA,"Colonial States Athletic Conference","www.cabrini.edu",-18420.94,0,0,4099325,7281162,4355936,46021,3150801,113100,100595,224113,"1406","851",2257,19352632.06,8574.49360212672
"Caddo Kiowa Technology Center","OK",364946,736021022,996300,NA,NA,"Public, less-than 2-year",-98.443443,35.108561,"Caddo County",NA,NA,NA,0,0,57350,NA,NA,NA,NA,417965.01,NA,NA,7321,"237","NULL",237,482636.01,2036.43886075949
"Cairn University-Langhorne","PA",215114,230973290,335100,NA,NA,"Private not-for-profit, 4-year or above",-74.909509,40.165809,"Bucks County",NA,"Division III Independents",NA,0,0,0,1972769,2854462,762190,5751,1167081,NA,75333,146882,"813","260",1073,6984468,6509.2898415657
"Caldwell Community College and Technical Institute","NC",198118,560817481,483500,NA,NA,"Public, 2-year",-81.484148,35.854604,"Caldwell County",NA,NA,NA,293477.83,0,0,NA,NA,NA,NA,4702759.59,NA,54200,73800,"3876","NULL",3876,5124237.42,1322.04267801858
"Caldwell University","NJ",183910,221500483,259800,NA,NA,"Private not-for-profit, 4-year or above",-74.273697,40.834285,"Essex County",NA,"Central Atlantic Collegiate Conf",NA,0,0,0,NA,NA,NA,NA,NA,NA,106800,148043,"1600","543",2143,254843,118.918805412972
"Caldwell University","NJ",183910,221500483,259800,NA,NA,"Private not-for-profit, 4-year or above",-74.273697,40.834285,"Essex County",NA,"Central Atlantic Collegiate Conf",NA,0,0,0,3454930,7113700,3532770,40154,3200768,NA,106800,148043,"1600","543",2143,17597165,8211.46290247317
