Recipient,State,INST_TYPE,LONGITUDE,LATITUDE,COUNTY,Football,Basketball,Fed_Funding_Amt
Johns Hopkins University,MD,"Private not-for-profit, 4-year or above",-76.621595,39.328977,Baltimore City,Centennial Conference,Centennial Conference,2073309239
University of California-Berkeley,CA,"Public, 4-year or above",-122.260463,37.871918,Alameda County,Pacific-12 Conference,Pacific-12 Conference,1450474449
Massachusetts Institute of Technology,MA,"Private not-for-profit, 4-year or above",-71.092115,42.360095,Middlesex County,New England Football Conference,New England Women's & Men's Athletic Conference,1447238463
Stanford University,CA,"Private not-for-profit, 4-year or above",-122.164434,37.429532,Santa Clara County,Pacific-12 Conference,Pacific-12 Conference,1285330333
Harvard University,MA,"Private not-for-profit, 4-year or above",-71.118177,42.374429,Middlesex County,Ivy Group,Ivy Group,1165952587
University of Washington,WA,"Public, 4-year or above",-122.313115,47.656213,King County,Pacific-12 Conference,Pacific-12 Conference,1147159420
Pennsylvania State University,PA,"Public, 4-year or above",-77.861644,40.800732,Centre County,Big Ten Conference,Big Ten Conference,1144004377
Pennsylvania State University,PA,"Public, 4-year or above",-77.861644,40.800732,Centre County,Big Ten Conference,Big Ten Conference,1144004377
University of Southern California,CA,"Private not-for-profit, 4-year or above",-118.284169,34.021281,Los Angeles County,Pacific-12 Conference,Pacific-12 Conference,1085646031
University of Michigan-Ann Arbor,MI,"Public, 4-year or above",-83.742769,42.275921,Washtenaw County,Big Ten Conference,Big Ten Conference,1060506023
New York University,NY,"Private not-for-profit, 4-year or above",-73.997264,40.729452,New York County,NA,University Athletic Association,1029792738
Columbia University in the City of New York,NY,"Private not-for-profit, 4-year or above",-73.961885,40.808286,New York County,Ivy Group,Ivy Group,991838048
Arizona State University-Tempe,AZ,"Public, 4-year or above",-111.934629,33.422247,Maricopa County,Pacific-12 Conference,Pacific-12 Conference,960140252
University of Pittsburgh-Pittsburgh Campus,PA,"Public, 4-year or above",-79.954692,40.444502,Allegheny County,Atlantic Coast Conference,Atlantic Coast Conference,871182209
University of California-San Diego,CA,"Public, 4-year or above",-117.237793,32.876598,San Diego County,NA,NA,857285005
University of California-Los Angeles,CA,"Public, 4-year or above",-118.443901,34.068892,Los Angeles County,Pacific-12 Conference,Pacific-12 Conference,812746293
University of Pennsylvania,PA,"Private not-for-profit, 4-year or above",-75.193618,39.951002,Philadelphia County,Ivy Group,Ivy Group,808090209
University of North Carolina at Chapel Hill,NC,"Public, 4-year or above",-79.050969,35.911769,Orange County,Atlantic Coast Conference,Atlantic Coast Conference,795296569
University of Minnesota-Twin Cities,MN,"Public, 4-year or above",-93.235352,44.977886,Hennepin County,Big Ten Conference,Big Ten Conference,776701747
University of California-San Francisco,CA,"Public, 4-year or above",-122.458049,37.762736,San Francisco County,NA,NA,765094651
Michigan State University,MI,"Public, 4-year or above",-84.476111,42.73212,Ingham County,Big Ten Conference,Big Ten Conference,762560514
University of Wisconsin-Madison,WI,"Public, 4-year or above",-89.405356,43.073858,Dane County,Big Ten Conference,Big Ten Conference,750519698
Rutgers University-New Brunswick,NJ,"Public, 4-year or above",-74.446251,40.498769,Middlesex County,Big Ten Conference,Big Ten Conference,747069512
Southern New Hampshire University,NH,"Private not-for-profit, 4-year or above",-71.453938,43.039892,Hillsborough County,NA,Northeast 10 Conference,709436073
Liberty University,VA,"Private not-for-profit, 4-year or above",-79.179688,37.350345,Lynchburg City,Big South Conference,Big South Conference,708278812
Ohio State University,OH,"Public, 4-year or above",-83.009001,39.998389,Franklin County,Big Ten Conference,Big Ten Conference,705220713
Duke University,NC,"Private not-for-profit, 4-year or above",-78.937624,36.001135,Durham County,Atlantic Coast Conference,Atlantic Coast Conference,704550080
University of Florida,FL,"Public, 4-year or above",-82.339958,29.649428,Alachua County,Southeastern Conference,Southeastern Conference,670490490
University of Florida,FL,"Public, 4-year or above",-82.339958,29.649428,Alachua County,Southeastern Conference,Southeastern Conference,670490490
The University of Texas at Austin,TX,"Public, 4-year or above",-97.739291,30.28609,Travis County,Big Twelve Conference,Big Twelve Conference,661085545
Texas A & M University-College Station,TX,"Public, 4-year or above",-96.340322,30.613226,Brazos County,Southeastern Conference,Southeastern Conference,616442867
Northwestern University,IL,"Private not-for-profit, 4-year or above",-87.673653,42.058377,Cook County,Big Ten Conference,Big Ten Conference,602774544
Georgia Institute of Technology-Main Campus,GA,"Public, 4-year or above",-84.396019,33.773732,Fulton County,Atlantic Coast Conference,Atlantic Coast Conference,602265837
University of Illinois at Urbana-Champaign,IL,"Public, 4-year or above",-88.230309,40.108864,Champaign County,Big Ten Conference,Big Ten Conference,601345934
Boston University,MA,"Private not-for-profit, 4-year or above",-71.09984,42.349581,Suffolk County,NA,Patriot League,595706371
Yale University,CT,"Private not-for-profit, 4-year or above",-72.926688,41.311158,New Haven County,Ivy Group,Ivy Group,595356873
University of California-Davis,CA,"Public, 4-year or above",-121.751958,38.539895,Yolo County,Big Sky Conference,Big West Conference,592887761
Cornell University,NY,"Private not-for-profit, 4-year or above",-76.483489,42.447199,Tompkins County,IVY Group,IVY Group,589049578
Washington University in St Louis,MO,"Private not-for-profit, 4-year or above",-90.310604,38.647929,St. Louis County,University Athletic Association,University Athletic Association,576064354
University of Arizona,AZ,"Public, 4-year or above",-110.950815,32.232672,Pima County,Pacific-12 Conference,Pacific-12 Conference,571923880
Vanderbilt University,TN,"Private not-for-profit, 4-year or above",-86.803369,36.14659,Davidson County,Southeastern Conference,Southeastern Conference,570855232
Nova Southeastern University,FL,"Private not-for-profit, 4-year or above",-80.24248,26.079337,Broward County,NA,Sunshine State Conference,565936034
Temple University,PA,"Public, 4-year or above",-75.158267,39.980943,Philadelphia County,American Athletic Conference,American Athletic Conference,502779175
Indiana University-Bloomington,IN,"Public, 4-year or above",-86.526904,39.166383,Monroe County,Big Ten Conference,Big Ten Conference,488698507
University of Chicago,IL,"Private not-for-profit, 4-year or above",-87.601196,41.78917,Cook County,South Atlantic Conference,University Athletic Association,482294861
University of Alabama at Birmingham,AL,"Public, 4-year or above",-86.799345,33.505697,Jefferson County,Conference USA,Conference USA,480192635
University of Colorado Denver/Anschutz Medical Campus,CO,"Public, 4-year or above",-104.837722,39.745149,Adams County,NA,NA,477248428
University of Illinois at Chicago,IL,"Public, 4-year or above",-87.651145,41.872651,Cook County,NA,Horizon League,469473253
University of Colorado Boulder,CO,"Public, 4-year or above",-105.270823,40.008781,Boulder County,Pacific-12 Conference,Pacific-12 Conference,466058135
University of South Florida,FL,"Public, 4-year or above",-82.415876,28.056647,NA,NA,NA,463808207
University of Maryland-College Park,MD,"Public, 4-year or above",-76.939494,38.985379,Prince George'S County,Big Ten Conference,Big Ten Conference,461335334
University of Utah,UT,"Public, 4-year or above",-111.846044,40.762484,Salt Lake County,Pacific-12 Conference,Pacific-12 Conference,456782601
Florida International University,FL,"Public, 4-year or above",-80.377591,25.757111,Miami-Dade County,Conference USA,Conference USA,454817213
Case Western Reserve University,OH,"Private not-for-profit, 4-year or above",-81.605769,41.500812,Cuyahoga County,Presidents' Athletic Conference,University Athletic Association,450278960
Massachusetts General Hospital Dietetic Internship,MA,"Private not-for-profit, 4-year or above",-71.068939,42.362612,Suffolk County,NA,NA,444744519
Oregon State University,OR,"Public, 4-year or above",-123.274721,44.56274,Benton County,Pacific-12 Conference,Pacific-12 Conference,443036977
George Washington University,DC,"Private not-for-profit, 4-year or above",-77.047871,38.89865,District Of Columbia,NA,Atlantic 10 Conference,424352291
University of Central Florida,FL,"Public, 4-year or above",-81.198805,28.60106,Orange County,American Athletic Conference,American Athletic Conference,420631312
University of Iowa,IA,"Public, 4-year or above",-91.536425,41.661935,Johnson County,Big Ten Conference,Big Ten Conference,413456850
"University of Maryland, Baltimore",MD,"Public, 4-year or above",-76.624981,39.29173,Baltimore City,NA,NA,410029868
University of Cincinnati,OH,"Public, 4-year or above",-84.51428,39.131159,Hamilton County,American Athletic Conference,American Athletic Conference,401499620
University of California-Irvine,CA,"Public, 4-year or above",-117.841248,33.648434,Orange County,NA,Big West Conference,399863773
University of Kentucky,KY,"Public, 4-year or above",-84.504747,38.038911,Fayette County,Southeastern Conference,Southeastern Conference,395527842
Howard University,DC,"Private not-for-profit, 4-year or above",-77.019478,38.920739,District Of Columbia,Mid-Eastern Athletic Conference,Mid-Eastern Athletic Conference,392632385
Emory University-Oxford College,GA,"Private not-for-profit, 2-year",-83.871141,33.6191,Newton County,NA,NA,384266349
Icahn School of Medicine at Mount Sinai,NY,"Private not-for-profit, 4-year or above",-73.953445,40.789801,New York County,NA,NA,379483100
Georgia State University,GA,"Public, 4-year or above",-84.38667,33.7527,Fulton County,Sun Belt Conference,Sun Belt Conference,377960584
Purdue University-Main Campus,IN,"Public, 4-year or above",-86.914435,40.428206,Tippecanoe County,Big Ten Conference,Big Ten Conference,374494460
Colorado State University-Fort Collins,CO,"Public, 4-year or above",-105.08083,40.574759,Larimer County,Mountain West Conference,Mountain West Conference,367174432
Chamberlain College of Nursing-Administrative Office,IL,Administrative Unit,-88.007384,41.833434,Dupage County,NA,NA,365279063
Virginia Commonwealth University,VA,"Public, 4-year or above",-77.453597,37.547631,Richmond City,NA,Atlantic 10 Conference,364081534
University of Georgia,GA,"Public, 4-year or above",-83.374049,33.956428,Clarke County,Southeastern Conference,Southeastern Conference,354668896
Iowa State University,IA,"Public, 4-year or above",-93.648504,42.026212,Story County,Big Twelve Conference,Big Twelve Conference,354387216
University of Virginia,VA,"Public, 4-year or above",-78.503428,38.035665,Albemarle County,Atlantic Coast Conference,Atlantic Coast Conference,352937848
Georgetown University,DC,"Private not-for-profit, 4-year or above",-77.073463,38.908809,District Of Columbia,Patriot League,Big East Conference,348407709
Florida State University,FL,"Public, 4-year or above",-84.291921,30.440756,Leon County,Atlantic Coast Conference,Atlantic Coast Conference,346656898
University of Kansas,KS,"Public, 4-year or above",-95.247567,38.958549,Douglas County,Big Twelve Conference,Big Twelve Conference,342703414
University of Miami,FL,"Private not-for-profit, 4-year or above",-80.278662,25.72126,Miami-Dade County,Atlantic Coast Conference,Atlantic Coast Conference,332974196
University of Rochester,NY,"Private not-for-profit, 4-year or above",-77.631202,43.126397,Monroe County,University Athletic Association,University Athletic Association,332613794
University of South Florida-Main Campus,FL,"Public, 4-year or above",-82.415876,28.056647,NA,NA,NA,331714262
Oregon Health & Science University,OR,"Public, 4-year or above",-122.686096,45.498772,Multnomah County,NA,NA,329273709
Washington State University,WA,"Public, 4-year or above",-117.158168,46.730448,Whitman County,Pacific-12 Conference,Pacific-12 Conference,327305706
West Virginia University,WV,"Public, 4-year or above",-79.953926,39.63468,Monongalia County,Big Twelve Conference,Big Twelve Conference,326666255
The University of Texas at Arlington,TX,"Public, 4-year or above",-97.115087,32.728437,Tarrant County,NA,Sun Belt Conference,323232268
Virginia Polytechnic Institute and State University,VA,"Public, 4-year or above",-80.423675,37.229012,Montgomery County,Atlantic Coast Conference,Atlantic Coast Conference,321971260
University of Missouri-Columbia,MO,"Public, 4-year or above",-92.326429,38.941015,Boone County,Southeastern Conference,Southeastern Conference,314991984
Drexel University,PA,"Private not-for-profit, 4-year or above",-75.188745,39.954855,Philadelphia County,NA,Colonial Athletic Association,314100197
University of New Mexico-Main Campus,NM,"Public, 4-year or above",-106.620155,35.083868,Bernalillo County,Mountain West Conference,Mountain West Conference,313537186
Wayne State University,MI,"Public, 4-year or above",-83.072864,42.35861,Wayne County,Great Lakes Intercollegiate Ath Conf,Great Lakes Intercollegiate Ath Conf,309616254
Texas A & M University-System Office,TX,Administrative Unit,-96.327705,30.636846,Brazos County,NA,NA,303505864
University of Hawaii at Manoa,HI,"Public, 4-year or above",-157.816607,21.292648,Honolulu County,Mountain West Conference,Big West Conference,303158882
University of Connecticut,CT,"Public, 4-year or above",-72.249948,41.809098,Tolland County,American Athletic Conference,Big East Conference,301224427
Kent State University at Kent,OH,"Public, 4-year or above",-81.342533,41.146653,Portage County,Mid-American Conference,Mid-American Conference,298673934
University of Houston,TX,"Public, 4-year or above",-95.343537,29.720393,Harris County,American Athletic Conference,American Athletic Conference,294967847
North Carolina State University at Raleigh,NC,"Public, 4-year or above",-78.674517,35.785111,Wake County,Atlantic Coast Conference,Atlantic Coast Conference,290706479
Baylor College of Medicine,TX,"Private not-for-profit, 4-year or above",-95.395743,29.7106,Washington County,NA,NA,290453246
Mayo Clinic School of Medicine,MN,"Private not-for-profit, 4-year or above",-92.466417,44.020808,Olmsted County,NA,NA,283688349
Texas State University,TX,"Public, 4-year or above",-97.936392,29.889202,Hays County,Sun Belt Conference,Sun Belt Conference,282961913
University of Oklahoma-Norman Campus,OK,"Public, 4-year or above",-97.445692,35.208152,Cleveland County,Big Twelve Conference,Big Twelve Conference,280829827
Tufts University,MA,"Private not-for-profit, 4-year or above",-71.121689,42.406994,Middlesex County,New England Small College Ath Conf,New England Small College Ath Conf,278241080
University of Delaware,DE,"Public, 4-year or above",-75.752822,39.679577,New Castle County,Colonial Athletic Association,Colonial Athletic Association,273656422
Stony Brook University,NY,"Public, 4-year or above",-73.123595,40.913138,Suffolk County,Colonial Athletic Association,America East,273307205
Pardee RAND Graduate School,CA,"Private not-for-profit, 4-year or above",-118.49047,34.009975,Los Angeles County,NA,NA,265428954
University of Connecticut Health Center,CT,"Public, 4-year or above",-72.249948,41.809098,Tolland County,NA,NA,264229145
University of North Texas,TX,"Public, 4-year or above",-97.151211,33.210958,Denton County,Conference USA,Conference USA,263837854
DePaul University,IL,"Private not-for-profit, 4-year or above",-87.62724,41.877618,Cook County,NA,Big East Conference,263733606
University of South Carolina-Columbia,SC,"Public, 4-year or above",-81.026971,33.998973,Richland County,Southeastern Conference,Southeastern Conference,262377333
Ultimate Medical Academy,FL,"Private not-for-profit, 2-year",-82.785431,27.96532,Pinellas County,NA,NA,262226487
Louisiana State University,LA,"Public, 4-year or above",-91.178921,30.414986,East Baton Rouge Parish,Southeastern Conference,Southeastern Conference,258439808
Ohio University,OH,"Public, 4-year or above",-82.100985,39.326798,Athens County,Mid-American Conference,Mid-American Conference,258113525
Princeton University,NJ,"Private not-for-profit, 4-year or above",-74.659365,40.348732,Mercer County,Ivy Group,Ivy Group,255521151
Indiana University-Purdue University-Indianapolis,IN,"Public, 4-year or above",-86.172217,39.772948,Marion County,NA,The Summit League,254922713
George Mason University,VA,"Public, 4-year or above",-77.30794,38.83088,Fairfax County,NA,Atlantic 10 Conference,252576463
University of Massachusetts-Amherst,MA,"Public, 4-year or above",-72.526728,42.385999,Hampshire County,Independent Northeast Region,Atlantic 10 Conference,252515284
Keiser University-Ft Lauderdale,FL,"Private not-for-profit, 4-year or above",-80.163959,26.185869,Broward County,NA,Other,252198170
The University of Alabama,AL,"Public, 4-year or above",-87.545766,33.2144,Tuscaloosa County,Southeastern Conference,Southeastern Conference,249940099
The University of Tennessee-Knoxville,TN,"Public, 4-year or above",-83.925852,35.952082,Knox County,Southeastern Conference,Southeastern Conference,249056490
Northeastern University,MA,"Private not-for-profit, 4-year or above",-71.088782,42.339992,Suffolk County,NA,Colonial Athletic Association,246607849
Northeastern University,MA,"Private not-for-profit, 4-year or above",-71.088782,42.339992,Suffolk County,NA,Colonial Athletic Association,246607849
University of Louisville,KY,"Public, 4-year or above",-85.758843,38.215752,Jefferson County,Atlantic Coast Conference,Atlantic Coast Conference,246357052
University of Massachusetts Medical School Worcester,MA,"Public, 4-year or above",-71.760689,42.277589,Worcester County,NA,NA,245899751
Northern Arizona University,AZ,"Public, 4-year or above",-111.657653,35.180095,NA,NA,NA,245402896
University of North Texas System,TX,Administrative Unit,-96.794931,32.781634,Dallas County,NA,NA,244809039
Yeshiva University,NY,"Private not-for-profit, 4-year or above",-73.928541,40.8508,New York County,NA,Skyline Conference,239671516
University of Oregon,OR,"Public, 4-year or above",-123.075792,44.045146,Lane County,Pacific-12 Conference,Pacific-12 Conference,238520353
University of California-Santa Barbara,CA,"Public, 4-year or above",-119.846426,34.416297,Santa Barbara County,NA,Big West Conference,235620617
University of Maryland-University College,MD,"Public, 4-year or above",-76.954104,38.986299,Prince George'S County,NA,NA,234958769
Medical University of South Carolina,SC,"Public, 4-year or above",-79.946853,32.786017,Charleston County,NA,NA,234696409
Kansas State University,KS,"Public, 4-year or above",-96.581077,39.188616,Riley County,Big Twelve Conference,Big Twelve Conference,225924174
University of Texas Southwestern Medical Center,TX,"Public, 4-year or above",-96.841156,32.812307,Dallas County,NA,NA,221826650
University of Nebraska-Lincoln,NE,"Public, 4-year or above",-96.702177,40.822272,NA,NA,NA,218940703
Kennesaw State University,GA,"Public, 4-year or above",-84.583052,34.038807,Cobb County,Big South Conference,Atlantic Sun Conference,218696809
Texas Tech University,TX,"Public, 4-year or above",-101.874783,33.583448,Lubbock County,Big Twelve Conference,Big Twelve Conference,218427894
Wake Forest University,NC,"Private not-for-profit, 4-year or above",-80.277446,36.133609,Forsyth County,Atlantic Coast Conference,Atlantic Coast Conference,215905270
The University of Texas at San Antonio,TX,"Public, 4-year or above",-98.621386,29.582418,Bexar County,Conference USA,Conference USA,214869249
Loyola University Chicago,IL,"Private not-for-profit, 4-year or above",-87.657399,41.999161,Cook County,NA,Missouri Valley Conference,214579920
Syracuse University,NY,"Private not-for-profit, 4-year or above",-76.136975,43.040176,Onondaga County,Atlantic Coast Conference,Atlantic Coast Conference,214306704
University of California-Riverside,CA,"Public, 4-year or above",-117.331098,33.97588,Riverside County,NA,Big West Conference,213899969
Oklahoma State University,OK,"Public, 4-year or above",-97.069743,36.123085,Payne County,Big Twelve Conference,Big Twelve Conference,213658819
Central Michigan University,MI,"Public, 4-year or above",-84.77525,43.591203,Isabella County,Mid-American Conference,Mid-American Conference,213084618
East Carolina University,NC,"Public, 4-year or above",-77.368291,35.607186,Pitt County,American Athletic Conference,American Athletic Conference,211691024
California State University-Northridge,CA,"Public, 4-year or above",-118.526817,34.23671,Los Angeles County,NA,Big West Conference,211616678
University of Nevada-Las Vegas,NV,"Public, 4-year or above",-115.141153,36.106994,Clark County,Mountain West Conference,Mountain West Conference,210573132
University at Buffalo,NY,"Public, 4-year or above",-78.789458,43.000942,Erie County,Mid-American Conference,Mid-American Conference,208978471
San Diego State University,CA,"Public, 4-year or above",-117.071228,32.77525,San Diego County,Mountain West Conference,Mountain West Conference,205821241
California State University-Long Beach,CA,"Public, 4-year or above",-118.1123,33.782752,Los Angeles County,NA,Big West Conference,204855779
Mississippi State University,MS,"Public, 4-year or above",-88.790139,33.454852,Oktibbeha County,Southeastern Conference,Southeastern Conference,202555547
Ivy Tech Community College,IN,"Public, 2-year",-86.158213,39.803753,Marion County,NA,NA,202064013
Ivy Tech Community College,IN,"Public, 2-year",-86.158213,39.803753,Marion County,NA,NA,202064013
SUNY at Albany,NY,"Public, 4-year or above",-73.825014,42.686917,Albany County,Colonial Athletic Association,America East,201548865
University of North Carolina at Charlotte,NC,"Public, 4-year or above",-80.730919,35.306022,Mecklenburg County,Conference USA,Conference USA,201484962
Auburn University,AL,"Public, 4-year or above",-85.482782,32.604685,Lee County,Southeastern Conference,Southeastern Conference,201474265
Grand Valley State University,MI,"Public, 4-year or above",-85.887519,42.965208,Ottawa County,Great Lakes Intercollegiate Ath Conf,Great Lakes Intercollegiate Ath Conf,200094037
California Institute of Technology,CA,"Private not-for-profit, 4-year or above",-118.12574,34.139275,Los Angeles County,NA,Southern California Intercoll Ath Conf,197902319
Carnegie Mellon University,PA,"Private not-for-profit, 4-year or above",-79.942914,40.444616,Allegheny County,University Athletic Association,University Athletic Association,196650640
Clemson University,SC,"Public, 4-year or above",-82.835114,34.679381,Pickens County,Atlantic Coast Conference,Atlantic Coast Conference,196267760
Portland State University,OR,"Public, 4-year or above",-122.683553,45.511229,Multnomah County,Big Sky Conference,Big Sky Conference,196228109
LIU Post,NY,"Private not-for-profit, 4-year or above",-73.593279,40.820043,Nassau County,Northeast 10 Conference,East Coast Conference,194281177
California State University-Fullerton,CA,"Public, 4-year or above",-117.885349,33.883627,Orange County,NA,Big West Conference,193581777
St John's University-New York,NY,"Private not-for-profit, 4-year or above",-73.796104,40.722523,Queens County,NA,Big East Conference,193112219
Old Dominion University,VA,"Public, 4-year or above",-76.309653,36.884919,Norfolk City,Conference USA,Conference USA,191563535
University of Wisconsin-Milwaukee,WI,"Public, 4-year or above",-87.880488,43.076848,Milwaukee County,NA,Horizon League,190718252
Tulane University of Louisiana,LA,"Private not-for-profit, 4-year or above",-90.120409,29.939696,Orleans Parish,American Athletic Conference,American Athletic Conference,190172801
University of California-System Administration Central Office,CA,Administrative Unit,-122.27134,37.802222,Alameda County,NA,NA,187936724
Western Michigan University,MI,"Public, 4-year or above",-85.61512,42.282589,Kalamazoo County,Mid-American Conference,Mid-American Conference,186020957
University of Mississippi,MS,"Public, 4-year or above",-89.537434,34.365529,Lafayette County,Southeastern Conference,Southeastern Conference,181295284
American University,DC,"Private not-for-profit, 4-year or above",-77.090106,38.937802,District Of Columbia,NA,Patriot League,180968874
Florida Atlantic University,FL,"Public, 4-year or above",-80.102293,26.372536,Palm Beach County,Conference USA,Conference USA,178834953
California State University-Sacramento,CA,"Public, 4-year or above",-121.42194,38.55745,Sacramento County,Big Sky Conference,Big Sky Conference,178573243
University of New Hampshire-Main Campus,NH,"Public, 4-year or above",-70.934512,43.134235,Strafford County,Colonial Athletic Association,America East,177679389
San Jose State University,CA,"Public, 4-year or above",-121.880621,37.336569,Santa Clara County,Mountain West Conference,Mountain West Conference,177275915
The University of Texas at El Paso,TX,"Public, 4-year or above",-106.50356,31.771697,El Paso County,Conference USA,Conference USA,177151508
Brown University,RI,"Private not-for-profit, 4-year or above",-71.40385,41.82617,Providence County,Ivy Group,Ivy Group,175552597
University of California-Santa Cruz,CA,"Public, 4-year or above",-122.058801,36.995584,Santa Cruz County,NA,NA,174994773
SUNY Buffalo State,NY,"Public, 4-year or above",-78.88067,42.934199,Erie County,Empire Eight,State University of New York Ath Conf,174926361
University of Toledo,OH,"Public, 4-year or above",-83.614714,41.660572,Lucas County,Mid-American Conference,Mid-American Conference,173546481
Western University of Health Sciences,CA,"Private not-for-profit, 4-year or above",-117.747732,34.058092,Los Angeles County,NA,NA,173462655
San Francisco State University,CA,"Public, 4-year or above",-122.477905,37.721345,San Francisco County,NA,California Collegiate Athletic Assoc,172447292
Rowan University,NJ,"Public, 4-year or above",-75.117974,39.709768,Gloucester County,New Jersey Athletic Conference,New Jersey Athletic Conference,171250347
University of Memphis,TN,"Public, 4-year or above",-89.938068,35.118878,Shelby County,American Athletic Conference,American Athletic Conference,170095100
University of Vermont,VT,"Public, 4-year or above",-73.198128,44.479262,Chittenden County,NA,America East,169432399
The University of Texas MD Anderson Cancer Center,TX,"Public, 4-year or above",-95.40079,29.705395,Harris County,NA,NA,167860374
University of Arkansas,AR,"Public, 4-year or above",-94.176981,36.070009,Washington County,Southeastern Conference,Southeastern Conference,166872943
California State University-Los Angeles,CA,"Public, 4-year or above",-118.168965,34.066927,Los Angeles County,NA,California Collegiate Athletic Assoc,166444163
The University of Texas Rio Grande Valley,TX,"Public, 4-year or above",-98.172112,26.306629,Hidalgo County,NA,Western Athletic Conference,166308625
University of Rhode Island,RI,"Public, 4-year or above",-71.527356,41.484691,NA,Colonial Athletic Association,Atlantic 10 Conference,165226518
University of South Alabama,AL,"Public, 4-year or above",-88.178711,30.696033,Mobile County,Sun Belt Conference,Sun Belt Conference,164087575
Touro College,NY,"Private not-for-profit, 4-year or above",-73.989404,40.753199,New York County,NA,American Mideast Conference,163747314
Miami Dade College,FL,"Public, 4-year or above",-80.190856,25.777717,Miami-Dade County,NA,NA,163141377
Houston Community College,TX,"Public, 2-year",-95.376524,29.737303,Harris County,NA,NA,162215162
National University,CA,"Private not-for-profit, 4-year or above",-117.244243,32.909469,San Diego County,NA,NA,162192970
University of Denver,CO,"Private not-for-profit, 4-year or above",-104.963259,39.678005,Denver County,NA,The Summit League,161534825
University of Nevada-Reno,NV,"Public, 4-year or above",-119.818424,39.545052,Washoe County,Mountain West Conference,Mountain West Conference,161479820
Eastern Michigan University,MI,"Public, 4-year or above",-83.624499,42.245751,Washtenaw County,Mid-American Conference,Mid-American Conference,160862740
Montclair State University,NJ,"Public, 4-year or above",-74.199455,40.859233,Essex County,New Jersey Athletic Conference,New Jersey Athletic Conference,160022900
University of Dayton,OH,"Private not-for-profit, 4-year or above",-84.176113,39.739547,Montgomery County,Pioneer Football League,Atlantic 10 Conference,159681133
University of Colorado System Office,CO,Administrative Unit,-104.983277,39.74521,Denver County,NA,NA,159593840
Augusta University,GA,"Public, 4-year or above",-81.988361,33.47145,Richmond County,NA,Peach Belt Conference,159574353
Azusa Pacific University,CA,"Private not-for-profit, 4-year or above",-117.88795,34.130865,Los Angeles County,Great Northeast Athletic Conference,Pacific West Conference,158207856
University of Massachusetts-Boston,MA,"Public, 4-year or above",-71.038653,42.314541,Suffolk County,NA,NA,156803726
The University of Texas Health Science Center at Houston,TX,"Public, 4-year or above",-95.403183,29.702873,Harris County,NA,NA,155815887
Fordham University,NY,"Private not-for-profit, 4-year or above",-73.882705,40.859354,Bronx County,Patriot League,Atlantic 10 Conference,154840585
University of Nebraska Medical Center,NE,"Public, 4-year or above",-95.973966,41.256312,Douglas County,NA,NA,154748226
Ball State University,IN,"Public, 4-year or above",-85.408863,40.198942,Delaware County,Mid-American Conference,Mid-American Conference,154140477
University of North Carolina at Greensboro,NC,"Public, 4-year or above",-79.809844,36.067503,Guilford County,NA,Southern Conference,154039230
University of the Pacific,CA,"Private not-for-profit, 4-year or above",-121.312301,37.981424,San Joaquin County,NA,West Coast Conference,151601877
Dartmouth College,NH,"Private not-for-profit, 4-year or above",-72.289949,43.704115,Grafton County,Ivy Group,Ivy Group,151343874
Northern Illinois University,IL,"Public, 4-year or above",-88.766428,41.933869,Dekalb County,Mid-American Conference,Mid-American Conference,151122391
Utah State University,UT,"Public, 4-year or above",-111.81391,41.740748,Cache County,Mountain West Conference,Mountain West Conference,149588675
Sam Houston State University,TX,"Public, 4-year or above",-95.546205,30.714738,Walker County,Southland Conference,Southland Conference,149248449
Florida Agricultural and Mechanical University,FL,"Public, 4-year or above",-84.285644,30.428554,NA,NA,NA,148020896
University of Notre Dame,IN,"Private not-for-profit, 4-year or above",-86.238959,41.703058,St. Joseph County,Division I-A Independents,Atlantic Coast Conference,147748174
North Carolina A & T State University,NC,"Public, 4-year or above",-79.770152,36.076737,Guilford County,Mid-Eastern Athletic Conference,Mid-Eastern Athletic Conference,147660875
Southern Illinois University-Carbondale,IL,"Public, 4-year or above",-89.218724,37.713239,Jackson County,Missouri Valley Conference,Missouri Valley Conference,147261293
MCPHS University,MA,"Private not-for-profit, 4-year or above",-71.100964,42.337036,Suffolk County,NA,NA,147034620
Bowling Green State University-Main Campus,OH,"Public, 4-year or above",-83.637531,41.377036,Wood County,Mid-American Conference,Mid-American Conference,146791574
University of Missouri-Kansas City,MO,"Public, 4-year or above",-94.578039,39.035366,Jackson County,NA,Western Athletic Conference,146426097
Towson University,MD,"Public, 4-year or above",-76.611164,39.393622,Baltimore County,Colonial Athletic Association,Colonial Athletic Association,145355161
A T Still University of Health Sciences,MO,"Private not-for-profit, 4-year or above",-92.589183,40.193648,Adair County,NA,NA,145354178
Georgia Southern University,GA,"Public, 4-year or above",-81.782201,32.427756,Bulloch County,Sun Belt Conference,Sun Belt Conference,145048656
University of Akron,OH,"Public, 4-year or above",-81.511679,41.078551,Summit County,Mid-American Conference,Mid-American Conference,143844066
Saint Louis University,MO,"Private not-for-profit, 4-year or above",-90.23343,38.636516,St. Louis City,NA,Atlantic 10 Conference,142810590
University of New England,ME,"Private not-for-profit, 4-year or above",-70.385882,43.458172,York County,NA,Commonwealth Coast Conference,142360396
Illinois State University,IL,"Public, 4-year or above",-88.990058,40.509403,Mclean County,Missouri Valley Conference,Missouri Valley Conference,141005750
Saint Leo University,FL,"Private not-for-profit, 4-year or above",-82.257801,28.336776,Pasco County,NA,Sunshine State Conference,140189106
Loma Linda University,CA,"Private not-for-profit, 4-year or above",-117.260605,34.051241,San Bernardino County,NA,NA,139996150
University of Southern Mississippi,MS,"Public, 4-year or above",-89.331236,31.32661,Forrest County,Conference USA,Conference USA,139960567
Hofstra University,NY,"Private not-for-profit, 4-year or above",-73.60078,40.715959,Nassau County,NA,Colonial Athletic Association,139876241
Lake Erie College of Osteopathic Medicine,PA,"Private not-for-profit, 4-year or above",-80.105969,42.080699,Erie County,NA,NA,139694774
The University of Texas at Dallas,TX,"Public, 4-year or above",-96.749702,32.984673,Dallas County,NA,American Southwest Conference,139678696
Oakland University,MI,"Public, 4-year or above",-83.216418,42.674573,Oakland County,NA,Horizon League,139585862
Indiana Wesleyan University-Marion,IN,"Private not-for-profit, 4-year or above",-85.667503,40.517937,Grant County,Mid-States Football Association,Crossroads League,139096975
North Carolina Central University,NC,"Public, 4-year or above",-78.898602,35.974237,Durham County,Mid-Eastern Athletic Conference,Mid-Eastern Athletic Conference,138582616
Pace University-New York,NY,"Private not-for-profit, 4-year or above",-74.004719,40.711014,New York County,Northeast 10 Conference,Northeast 10 Conference,138476263
Valencia College,FL,"Public, 4-year or above",-81.471466,28.520898,Orange County,NA,NA,137456448
Middle Tennessee State University,TN,"Public, 4-year or above",-86.360618,35.848005,Rutherford County,Conference USA,Conference USA,135735240
The Chicago School of Professional Psychology at Los Angeles,CA,"Private not-for-profit, 4-year or above",-118.257204,34.047983,Los Angeles County,NA,NA,135140774
University of Maine,ME,"Public, 4-year or above",-68.669332,44.899257,Penobscot County,Atlantic 10 Conference,America East,134609816
Boise State University,ID,"Public, 4-year or above",-116.205789,43.604403,Ada County,Mountain West Conference,Mountain West Conference,133472791
California State University-San Bernardino,CA,"Public, 4-year or above",-117.322508,34.182987,San Bernardino County,NA,California Collegiate Athletic Assoc,133171723
The University of Texas Health Science Center at San Antonio,TX,"Public, 4-year or above",-98.57606,29.504716,Bexar County,NA,NA,133014497
California State University-Fresno,CA,"Public, 4-year or above",-119.748258,36.814477,Fresno County,Mountain West Conference,Mountain West Conference,132692885
Texas Southern University,TX,"Public, 4-year or above",-95.361961,29.722468,Harris County,Southwestern Athletic Conference,Southwestern Athletic Conference,132373837
Baylor University,TX,"Private not-for-profit, 4-year or above",-97.119359,31.545956,Washington County,Big Twelve Conference,Big Twelve Conference,131680552
Savannah College of Art and Design,GA,"Private not-for-profit, 4-year or above",-81.093849,32.072963,Chatham County,NA,NA,131214358
Mercer University,GA,"Private not-for-profit, 4-year or above",-83.648295,32.831787,Bibb County,Southern Conference,Southern Conference,131212806
Cleveland State University,OH,"Public, 4-year or above",-81.673052,41.502918,Cuyahoga County,NA,Horizon League,129513913
Creighton University,NE,"Private not-for-profit, 4-year or above",-95.947029,41.265325,Douglas County,NA,Big East Conference,129413964
Thomas Jefferson University,PA,"Private not-for-profit, 4-year or above",-75.158147,39.949062,Philadelphia County,NA,NA,129265418
Baker College,MI,"Private not-for-profit, 4-year or above",-83.694679,42.974764,Genesee County,NA,NA,129071034
The University of Texas Medical Branch,TX,"Public, 4-year or above",-94.776401,29.311333,Galveston County,NA,NA,128686101
Gallaudet University,DC,"Private not-for-profit, 4-year or above",-76.993675,38.907371,District Of Columbia,Eastern Collegiate Football Conference,North Eastern Athletic Conference,128195472
Embry-Riddle Aeronautical University,FL,"Private not-for-profit, 4-year or above",-81.0495,29.189244,Volusia County,NA,Florida Sun Conference,128084841
Embry-Riddle Aeronautical University,FL,"Private not-for-profit, 4-year or above",-81.0495,29.189244,Volusia County,NA,Florida Sun Conference,128084841
University of San Francisco,CA,"Private not-for-profit, 4-year or above",-122.450977,37.775564,San Francisco County,NA,West Coast Conference,128038501
Lone Star College System,TX,"Public, 2-year",-95.490077,30.188408,Montgomery County,NA,NA,127733430
Missouri State University-Springfield,MO,"Public, 4-year or above",-93.276821,37.197983,Greene County,Missouri Valley Conference,Missouri Valley Conference,127602498
East Tennessee State University,TN,"Public, 4-year or above",-82.366954,36.301643,Washington County,Southern Conference,Southern Conference,126889141
California State Polytechnic University-Pomona,CA,"Public, 4-year or above",-117.819019,34.054273,Los Angeles County,NA,California Collegiate Athletic Assoc,126455442
Barry University,FL,"Private not-for-profit, 4-year or above",-80.196136,25.878865,Miami-Dade County,NA,Sunshine State Conference,126093295
University of North Texas Health Science Center,TX,"Public, 4-year or above",-97.368897,32.749818,Tarrant County,NA,NA,125909522
New Mexico State University-Main Campus,NM,"Public, 4-year or above",-106.747841,32.282875,Da Ana County,Sun Belt Conference,Western Athletic Conference,125441280
Wright State University-Main Campus,OH,"Public, 4-year or above",-84.064881,39.780634,Greene County,NA,Horizon League,124787600
Appalachian State University,NC,"Public, 4-year or above",-81.680234,36.214844,Watauga County,Sun Belt Conference,Sun Belt Conference,124694384
Pepperdine University,CA,"Private not-for-profit, 4-year or above",-118.707077,34.037786,Los Angeles County,NA,West Coast Conference,124667574
The University of Tennessee-Health Science Center,TN,"Public, 4-year or above",-90.030435,35.140634,Shelby County,NA,NA,124621069
Marquette University,WI,"Private not-for-profit, 4-year or above",-87.927961,43.03903,Milwaukee County,NA,Big East Conference,124322497
Troy University,AL,"Public, 4-year or above",-85.957094,31.800672,Pike County,Sun Belt Conference,Sun Belt Conference,124304298
Troy University,AL,"Public, 4-year or above",-85.957094,31.800672,Pike County,Sun Belt Conference,Sun Belt Conference,124304298
Troy University,AL,"Public, 4-year or above",-85.957094,31.800672,Pike County,Sun Belt Conference,Sun Belt Conference,124304298
University of North Dakota,ND,"Public, 4-year or above",-97.071738,47.921654,Grand Forks County,Big Sky Conference,Big Sky Conference,124189951
Jackson State University,MS,"Public, 4-year or above",-90.20663,32.296781,Hinds County,Southwestern Athletic Conference,Southwestern Athletic Conference,123583621
Medical College of Wisconsin,WI,"Private not-for-profit, 4-year or above",-88.022698,43.044108,Milwaukee County,NA,NA,122680921
Southern Illinois University-Edwardsville,IL,"Public, 4-year or above",-89.997779,38.793949,Madison County,NA,Ohio Valley Conference,122280674
Stevens-Henager College,UT,"Private not-for-profit, 4-year or above",-112.011617,41.232847,Weber County,NA,NA,121794868
Eastern Kentucky University,KY,"Public, 4-year or above",-84.301356,37.740396,Madison County,Ohio Valley Conference,Ohio Valley Conference,121641098
New York Institute of Technology,NY,"Private not-for-profit, 4-year or above",-73.6078,40.812447,Nassau County,NA,East Coast Conference,121328193
Western Kentucky University,KY,"Public, 4-year or above",-86.455898,36.985718,Warren County,Conference USA,Conference USA,121063459
The University of Montana,MT,"Public, 4-year or above",-113.982912,46.859312,Missoula County,Big Sky Conference,Big Sky Conference,120754605
University of Massachusetts-Lowell,MA,"Public, 4-year or above",-71.325081,42.65372,Middlesex County,NA,America East,120285031
California Baptist University,CA,"Private not-for-profit, 4-year or above",-117.42587,33.928569,Riverside County,NA,Pacific West Conference,119880550
James Madison University,VA,"Public, 4-year or above",-78.870484,38.436311,Harrisonburg City,Colonial Athletic Association,Colonial Athletic Association,119478226
Rochester Institute of Technology,NY,"Private not-for-profit, 4-year or above",-77.67386,43.084188,Monroe County,NA,Upstate Collegiate Athletic Association,118671781
West Chester University of Pennsylvania,PA,"Public, 4-year or above",-75.59812,39.953398,Chester County,Pennsylvania State Athletic Conference,Pennsylvania State Athletic Conference,118444505
Chapman University,CA,"Private not-for-profit, 4-year or above",-117.851481,33.793678,Orange County,Southern California Intercoll Ath Conf,Southern California Intercoll Ath Conf,117525775
Webster University,MO,"Private not-for-profit, 4-year or above",-90.345654,38.589269,St. Louis County,NA,St. Louis Intercollegiate Ath Conf,116914074
SUNY at Binghamton,NY,"Public, 4-year or above",-75.971143,42.088049,Broome County,NA,America East,115734746
Indiana University of Pennsylvania-Main Campus,PA,"Public, 4-year or above",-79.159869,40.615589,Indiana County,Pennsylvania State Athletic Conference,Pennsylvania State Athletic Conference,115373448
Lincoln Memorial University,TN,"Private not-for-profit, 4-year or above",-83.658818,36.581284,Claiborne County,NA,South Atlantic Conference,114370531
University of Idaho,ID,"Public, 4-year or above",-117.024296,46.726894,Latah County,Sun Belt Conference,Big Sky Conference,113452374
Simmons College,MA,"Private not-for-profit, 4-year or above",-71.099967,42.3393,Suffolk County,NA,Great Northeast Athletic Conference,113414934
Brigham Young University-Provo,UT,"Private not-for-profit, 4-year or above",-111.649281,40.250851,Utah County,Other,West Coast Conference,112512919
Marshall University,WV,"Public, 4-year or above",-82.428964,38.422482,Cabell County,Conference USA,Conference USA,112431585
Boston College,MA,"Private not-for-profit, 4-year or above",-71.171488,42.337688,Middlesex County,Atlantic Coast Conference,Atlantic Coast Conference,111967946
Brigham Young University-Idaho,ID,"Private not-for-profit, 4-year or above",-111.782431,43.818408,Madison County,NA,NA,111624463
Arkansas State University-Main Campus,AR,"Public, 4-year or above",-90.680478,35.842779,Craighead County,Sun Belt Conference,Sun Belt Conference,111585313
University of Arkansas for Medical Sciences,AR,"Public, 4-year or above",-92.320945,34.749718,Pulaski County,NA,NA,111300512
Montana State University,MT,"Public, 4-year or above",-111.049918,45.666829,Gallatin County,Big Sky Conference,Big Sky Conference,110384559
University of West Georgia,GA,"Public, 4-year or above",-85.099007,33.574421,Carroll County,Gulf South Conference,Gulf South Conference,110325641
University of Alaska Fairbanks,AK,"Public, 4-year or above",-147.822943,64.856483,Fairbanks North Star Borough,NA,Great Northwest Athletic Conference,110260675
St Petersburg College,FL,"Public, 4-year or above",-82.717331,27.90242,Pinellas County,NA,NA,110083371
University of San Diego,CA,"Private not-for-profit, 4-year or above",-117.188721,32.77142,San Diego County,Pioneer Football League,West Coast Conference,109888905
California Polytechnic State University-San Luis Obispo,CA,"Public, 4-year or above",-120.657311,35.299513,San Luis Obispo County,Big Sky Conference,Big West Conference,109831949
Broward College,FL,"Public, 4-year or above",-80.14183,26.119422,Broward County,NA,NA,109460062
Campbell University,NC,"Private not-for-profit, 4-year or above",-78.738238,35.409149,Harnett County,Pioneer Football League,Big South Conference,108658047
Duquesne University,PA,"Private not-for-profit, 4-year or above",-79.993046,40.437496,Allegheny County,Northeast Conference,Atlantic 10 Conference,108644589
Southern University and A & M College,LA,"Public, 4-year or above",-91.190105,30.524558,East Baton Rouge Parish,Southwestern Athletic Conference,Southwestern Athletic Conference,108577407
Southern University and A & M College,LA,"Public, 4-year or above",-91.190105,30.524558,East Baton Rouge Parish,Southwestern Athletic Conference,Southwestern Athletic Conference,108577407
Loyola Marymount University,CA,"Private not-for-profit, 4-year or above",-118.415655,33.970633,Los Angeles County,NA,West Coast Conference,107832662
Kean University,NJ,"Public, 4-year or above",-74.234668,40.679429,Union County,New Jersey Athletic Conference,New Jersey Athletic Conference,107571931
Utah Valley University,UT,"Public, 4-year or above",-111.717058,40.278512,Utah County,NA,Western Athletic Conference,107399983
Wichita State University,KS,"Public, 4-year or above",-97.296733,37.716484,NA,NA,NA,107274874
Quinnipiac University,CT,"Private not-for-profit, 4-year or above",-72.894117,41.418915,New Haven County,NA,Metro Atlantic Athletic Conference,106533214
Miami University-Oxford,OH,"Public, 4-year or above",-84.731821,39.509642,NA,NA,NA,106416147
Touro University California,CA,"Private not-for-profit, 4-year or above",-122.26555,38.084841,Solano County,NA,NA,105911981
Metropolitan State University of Denver,CO,"Public, 4-year or above",-105.00504,39.744202,Denver County,NA,Rocky Mountain Athletic Conference,105886177
Ferris State University,MI,"Public, 4-year or above",-85.483509,43.687464,Mecosta County,Great Lakes Intercollegiate Ath Conf,Great Lakes Intercollegiate Ath Conf,104921347
California State University-Chico,CA,"Public, 4-year or above",-121.844859,39.729712,Butte County,NA,California Collegiate Athletic Assoc,104720498
Stephen F Austin State University,TX,"Public, 4-year or above",-94.64908,31.621056,Nacogdoches County,Southland Conference,Southland Conference,104608565
Valdosta State University,GA,"Public, 4-year or above",-83.289925,30.849236,Lowndes County,Gulf South Conference,Gulf South Conference,103785205
Regent University,VA,"Private not-for-profit, 4-year or above",-76.192844,36.800929,Virginia Beach City,NA,NA,103721534
Hampton University,VA,"Private not-for-profit, 4-year or above",-76.339161,37.019944,Hampton City,Mid-Eastern Athletic Conference,Mid-Eastern Athletic Conference,103618448
Rush University,IL,"Private not-for-profit, 4-year or above",-87.667498,41.874911,Cook County,NA,NA,103599078
Columbia College,MO,"Private not-for-profit, 4-year or above",-92.326544,38.957899,Boone County,NA,American Midwest Conference,103052352
Prairie View A & M University,TX,"Public, 4-year or above",-95.992066,30.094591,NA,NA,NA,101933162
Southern Methodist University,TX,"Private not-for-profit, 4-year or above",-96.784855,32.845254,Dallas County,American Athletic Conference,American Athletic Conference,100879478
Northern Virginia Community College,VA,"Public, 2-year",-77.236679,38.834039,Fairfax County,NA,NA,100040407
University of South Carolina-Beaufort,SC,"Public, 4-year or above",-80.973595,32.303308,Beaufort County,NA,NA,99983021
University of North Carolina Wilmington,NC,"Public, 4-year or above",-77.875527,34.225223,New Hanover County,NA,Colonial Athletic Association,99797057
Coastal Carolina University,SC,"Public, 4-year or above",-79.011767,33.794995,Horry County,Sun Belt Conference,Sun Belt Conference,99734597
Mercy College,NY,"Private not-for-profit, 4-year or above",-73.874571,41.021436,Westchester County,NA,East Coast Conference,99470453
Life University,GA,"Private not-for-profit, 4-year or above",-84.514156,33.932104,Cobb County,NA,Mid-South Conference,99272905
University of the Incarnate Word,TX,"Private not-for-profit, 4-year or above",-98.467709,29.468052,Bexar County,Southland Conference,Southland Conference,98710314
CUNY Hunter College,NY,"Public, 4-year or above",-73.964795,40.768669,New York County,NA,City University of New York Ath Conf,98546165
Texas Woman's University,TX,"Public, 4-year or above",-97.129088,33.227002,Denton County,NA,Lone Star Conference,98486955
Lamar University,TX,"Public, 4-year or above",-94.072244,30.042738,Jefferson County,Southland Conference,Southland Conference,98316633
Columbia College-Chicago,IL,"Private not-for-profit, 4-year or above",-87.624554,41.873589,Cook County,NA,NA,97779726
Southern University-Board and System,LA,Administrative Unit,-91.196629,30.521517,East Baton Rouge Parish,NA,NA,97650327
Southern University-Board and System,LA,Administrative Unit,-91.196629,30.521517,East Baton Rouge Parish,NA,NA,97650327
University of Louisiana at Lafayette,LA,"Public, 4-year or above",-92.01941,30.215283,Lafayette Parish,Sun Belt Conference,Sun Belt Conference,97633028
University of Maryland-Baltimore County,MD,"Public, 4-year or above",-76.711607,39.256686,Baltimore County,NA,America East,97148574
Colorado State University-Global Campus,CO,"Public, 4-year or above",-104.898261,39.60942,Arapahoe County,NA,NA,97046323
Texas A & M University-Corpus Christi,TX,"Public, 4-year or above",-97.331933,27.718601,Nueces County,NA,Southland Conference,97011588
Philadelphia College of Osteopathic Medicine,PA,"Private not-for-profit, 4-year or above",-75.214198,40.006308,NA,NA,NA,96747778
University of Wyoming,WY,"Public, 4-year or above",-105.57931,41.311773,Albany County,Mountain West Conference,Mountain West Conference,96348584
Seton Hall University,NJ,"Private not-for-profit, 4-year or above",-74.248753,40.742859,Essex County,NA,Big East Conference,95645176
Delgado Community College,LA,"Public, 2-year",-90.103962,29.985149,Orleans Parish,NA,NA,95601690
CUNY City College,NY,"Public, 4-year or above",-73.95055,40.819794,New York County,NA,NA,95174872
Indiana State University,IN,"Public, 4-year or above",-87.407085,39.46873,Vigo County,Gateway Football Conference,Missouri Valley Conference,94687816
Northern Kentucky University,KY,"Public, 4-year or above",-84.463483,39.029714,Campbell County,NA,Horizon League,94350511
University of La Verne,CA,"Private not-for-profit, 4-year or above",-117.772634,34.10086,Los Angeles County,Southern California Intercoll Ath Conf,Southern California Intercoll Ath Conf,93292680
Texas A & M University-Commerce,TX,"Public, 4-year or above",-95.906913,33.243814,Hunt County,Lone Star Conference,Lone Star Conference,92639254
Belmont University,TN,"Private not-for-profit, 4-year or above",-86.794715,36.133866,Davidson County,NA,Ohio Valley Conference,92243022
CUNY Borough of Manhattan Community College,NY,"Public, 2-year",-74.011826,40.71879,New York County,NA,NA,92240868
Maryville University of Saint Louis,MO,"Private not-for-profit, 4-year or above",-90.505096,38.645474,St. Louis County,NA,Great Lakes Valley Conference,92237763
California State University-Dominguez Hills,CA,"Public, 4-year or above",-118.259316,33.86524,Los Angeles County,NA,California Collegiate Athletic Assoc,92123592
Edward Via College of Osteopathic Medicine,VA,"Private not-for-profit, 4-year or above",-80.406021,37.199666,Montgomery County,NA,NA,91979169
University of Northern Colorado,CO,"Public, 4-year or above",-104.692777,40.410855,Weld County,Big Sky Conference,Big Sky Conference,91933882
Central Washington University,WA,"Public, 4-year or above",-120.538368,47.002687,Kittitas County,Great Northwest Athletic Conference,Great Northwest Athletic Conference,91527027
Portland Community College,OR,"Public, 2-year",-122.731447,45.438722,Multnomah County,NA,NA,91488871
California State University-San Marcos,CA,"Public, 4-year or above",-117.158013,33.129115,San Diego County,NA,Association of Independent Institutions,91474784
Palmer College of Chiropractic,IA,"Private not-for-profit, 4-year or above",-90.574607,41.529021,Scott County,NA,NA,91461555
Clark Atlanta University,GA,"Private not-for-profit, 4-year or above",-84.412584,33.747628,Fulton County,Southern Intercollegiate Athletic Conf,Southern Intercollegiate Athletic Conf,91136227
Tennessee State University,TN,"Public, 4-year or above",-86.82937,36.16899,Davidson County,Ohio Valley Conference,Ohio Valley Conference,91056449
South Dakota State University,SD,"Public, 4-year or above",-96.782139,44.317485,Brookings County,Missouri Valley Conference,The Summit League,91021306
University of Nebraska at Omaha,NE,"Public, 4-year or above",-96.010797,41.257746,Douglas County,NA,The Summit League,90648034
Lindenwood University,MO,"Private not-for-profit, 4-year or above",-90.501286,38.785425,St. Charles County,Mid-America Intercollegiate Ath Assoc,Mid-America Intercollegiate Ath Assoc,90223379
Widener University,PA,"Private not-for-profit, 4-year or above",-75.355363,39.861689,Delaware County,Middle Atlantic States Athletic Corporation,Middle Atlantic States Athletic Corporation,89821542
Tarrant County College District,TX,"Public, 2-year",-97.327948,32.747501,Tarrant County,NA,NA,89260597
University of South Dakota,SD,"Public, 4-year or above",-96.924664,42.784558,Clay County,Missouri Valley Conference,The Summit League,88931761
Morgan State University,MD,"Public, 4-year or above",-76.584238,39.344235,Baltimore City,Mid-Eastern Athletic Conference,Mid-Eastern Athletic Conference,88437251
Western Washington University,WA,"Public, 4-year or above",-122.484873,48.737236,Whatcom County,NA,Great Northwest Athletic Conference,88291519
Tarleton State University,TX,"Public, 4-year or above",-98.214866,32.214988,Erath County,Lone Star Conference,Lone Star Conference,88075479
Texas Tech University Health Sciences Center,TX,"Public, 4-year or above",-101.89359,33.593227,Lubbock County,NA,NA,87996976
Hillsborough Community College,FL,"Public, 2-year",-82.456919,27.934513,Hillsborough County,NA,NA,87647233
Adelphi University,NY,"Private not-for-profit, 4-year or above",-73.653321,40.721439,Nassau County,NA,Northeast 10 Conference,86730060
Pacific University,OR,"Private not-for-profit, 4-year or above",-123.108777,45.521394,Washington County,Northwest Conference,Northwest Conference,86725349
University of Alabama in Huntsville,AL,"Public, 4-year or above",-86.640449,34.724557,Madison County,NA,Gulf South Conference,86588633
Alabama A & M University,AL,"Public, 4-year or above",-86.568502,34.783368,Madison County,Southwestern Athletic Conference,Southwestern Athletic Conference,86556496
University of Colorado Colorado Springs,CO,"Public, 4-year or above",-104.800296,38.892735,El Paso County,NA,Rocky Mountain Athletic Conference,86400288
Western Carolina University,NC,"Public, 4-year or above",-83.186258,35.308979,Jackson County,Southern Conference,Southern Conference,86036598
University of Central Oklahoma,OK,"Public, 4-year or above",-97.470985,35.658239,Oklahoma County,Mid-America Intercollegiate Ath Assoc,Mid-America Intercollegiate Ath Assoc,85250689
University of Detroit Mercy,MI,"Private not-for-profit, 4-year or above",-83.138369,42.417168,Wayne County,NA,Horizon League,85138903
Harrisburg Area Community College-Harrisburg,PA,"Public, 2-year",-76.886341,40.298256,Dauphin County,NA,NA,85080417
Brandman University,CA,"Private not-for-profit, 4-year or above",-117.769012,33.656401,Orange County,NA,NA,85021826
Western Illinois University,IL,"Public, 4-year or above",-90.685235,40.465621,Mcdonough County,Missouri Valley Conference,The Summit League,84195592
New Jersey Institute of Technology,NJ,"Public, 4-year or above",-74.177113,40.741997,Essex County,NA,Atlantic Sun Conference,83808820
Teachers College at Columbia University,NY,"Private not-for-profit, 4-year or above",-73.960399,40.810311,New York County,NA,NA,83791815
Grambling State University,LA,"Public, 4-year or above",-92.717367,32.522702,Lincoln Parish,Southwestern Athletic Conference,Southwestern Athletic Conference,83300166
Youngstown State University,OH,"Public, 4-year or above",-80.646515,41.105583,Mahoning County,Missouri Valley Conference,Horizon League,82955130
University of Missouri-St Louis,MO,"Public, 4-year or above",-90.308886,38.711297,St. Louis County,NA,Great Lakes Valley Conference,82861933
Rensselaer Polytechnic Institute,NY,"Private not-for-profit, 4-year or above",-73.678768,42.728983,Rensselaer County,Upstate Collegiate Athletic Association,Upstate Collegiate Athletic Association,82603030
New York Medical College,NY,"Private not-for-profit, 4-year or above",-73.811241,41.084261,NA,NA,NA,82597413
The New School,NY,"Private not-for-profit, 4-year or above",-73.994636,40.735275,New York County,NA,NA,81793320
Fairleigh Dickinson University-Metropolitan Campus,NJ,"Private not-for-profit, 4-year or above",-74.030023,40.896162,Bergen County,NA,Northeast Conference,81431211
Eastern Washington University,WA,"Public, 4-year or above",-117.583808,47.490667,Spokane County,Big Sky Conference,Big Sky Conference,81402678
Wilmington University,DE,"Private not-for-profit, 4-year or above",-75.586998,39.682299,New Castle County,NA,Central Atlantic Collegiate Conf,80781171
Florida State College at Jacksonville,FL,"Public, 4-year or above",-81.659901,30.334918,Duval County,NA,NA,80266853
North Dakota State University-Main Campus,ND,"Public, 4-year or above",-96.800838,46.893127,Cass County,Missouri Valley Conference,The Summit League,79983463
University of Arkansas at Little Rock,AR,"Public, 4-year or above",-92.341835,34.726644,Pulaski County,NA,Sun Belt Conference,79751403
Southern Connecticut State University,CT,"Public, 4-year or above",-72.948806,41.331852,New Haven County,Northeast 10 Conference,Northeast 10 Conference,79613138
Suffolk University,MA,"Private not-for-profit, 4-year or above",-71.061788,42.358944,Suffolk County,NA,Great Northeast Athletic Conference,79572355
The University of West Florida,FL,"Public, 4-year or above",-87.218511,30.549076,Escambia County,Gulf South Conference,Gulf South Conference,79246250
Community College of Philadelphia,PA,"Public, 2-year",-75.166065,39.962375,Philadelphia County,NA,NA,78055496
College of William and Mary,VA,"Public, 4-year or above",-76.708214,37.269489,Williamsburg City,Colonial Athletic Association,Colonial Athletic Association,77908685
Idaho State University,ID,"Public, 4-year or above",-112.429084,42.864108,NA,NA,NA,77639960
Wake Technical Community College,NC,"Public, 2-year",-78.706126,35.650151,Wake County,NA,NA,77445541
California State University-East Bay,CA,"Public, 4-year or above",-122.058073,37.65707,NA,NA,NA,77314625
Missouri University of Science and Technology,MO,"Public, 4-year or above",-91.7759,37.955853,Phelps County,Great Lakes Valley Conference,Great Lakes Valley Conference,77305598
Bloomsburg University of Pennsylvania,PA,"Public, 4-year or above",-76.446383,41.007989,Columbia County,Pennsylvania State Athletic Conference,Pennsylvania State Athletic Conference,77275812
Minnesota State University-Mankato,MN,"Public, 4-year or above",-93.99945,44.146712,Blue Earth County,Northern Sun Intercollegiate Conference,Northern Sun Intercollegiate Conference,77183907
Seattle University,WA,"Private not-for-profit, 4-year or above",-122.3197,47.610138,King County,NA,Western Athletic Conference,76759692
Columbus State Community College,OH,"Public, 2-year",-82.987654,39.969976,Franklin County,NA,NA,76577268
Norfolk State University,VA,"Public, 4-year or above",-76.26393,36.848262,Norfolk City,Mid-Eastern Athletic Conference,Mid-Eastern Athletic Conference,76134464
Alabama State University,AL,"Public, 4-year or above",-86.295677,32.364317,Montgomery County,Southwestern Athletic Conference,Southwestern Athletic Conference,75942308
Rockefeller University,NY,"Private not-for-profit, 4-year or above",-73.954912,40.762927,New York County,NA,NA,75890586
William Paterson University of New Jersey,NJ,"Public, 4-year or above",-74.199465,40.946256,Passaic County,New Jersey Athletic Conference,New Jersey Athletic Conference,75714986
Radford University,VA,"Public, 4-year or above",-80.549731,37.136914,Radford City,NA,Big South Conference,74391460
Tidewater Community College,VA,"Public, 2-year",-76.289669,36.850635,Norfolk City,NA,NA,74269095
Rice University,TX,"Private not-for-profit, 4-year or above",-95.402035,29.717897,Harris County,Conference USA,Conference USA,73978956
University of North Florida,FL,"Public, 4-year or above",-81.507853,30.270917,Duval County,NA,Atlantic Sun Conference,73964263
Slippery Rock University of Pennsylvania,PA,"Public, 4-year or above",-80.045965,41.062719,Butler County,Pennsylvania State Athletic Conference,Pennsylvania State Athletic Conference,73890854
Indiana Institute of Technology,IN,"Private not-for-profit, 4-year or above",-85.11795,41.078338,Allen County,NA,Wolverine-Hoosier Athletic Conference,73746592
Davenport University,MI,"Private not-for-profit, 4-year or above",-85.529655,42.849713,Kent County,Independent Great Lakes Region,Wolverine-Hoosier Athletic Conference,73249476
Saint Cloud State University,MN,"Public, 4-year or above",-94.153,45.552418,Stearns County,Northern Sun Intercollegiate Conference,Northern Sun Intercollegiate Conference,73117497
University of North Georgia,GA,"Public, 4-year or above",-83.985694,34.530219,Lumpkin County,NA,Peach Belt Conference,73111983
Concordia University-Portland,OR,"Private not-for-profit, 4-year or above",-122.637944,45.568242,Multnomah County,NA,Great Northwest Athletic Conference,72995703
Governors State University,IL,"Public, 4-year or above",-87.717012,41.448603,Will County,NA,Chicagoland Collegiate Athletic Conf,72967098
Central Connecticut State University,CT,"Public, 4-year or above",-72.770094,41.690258,Hartford County,Northeast Conference,Northeast Conference,72805814
Regis University,CO,"Private not-for-profit, 4-year or above",-105.031385,39.78976,NA,NA,NA,72796295
University of Minnesota-Duluth,MN,"Public, 4-year or above",-92.084385,46.817126,St. Louis County,Northern Sun Intercollegiate Conference,Northern Sun Intercollegiate Conference,72735565
University of Wisconsin-Whitewater,WI,"Public, 4-year or above",-88.742368,42.835563,Walworth County,Wisconsin Intercollegiate Ath Conf,Wisconsin Intercollegiate Ath Conference,72655279
Tuskegee University,AL,"Private not-for-profit, 4-year or above",-85.708492,32.4309,Macon County,Southern Intercollegiate Athletic Conf,Southern Intercollegiate Athletic Conf,72552250
Kutztown University of Pennsylvania,PA,"Public, 4-year or above",-75.783933,40.513561,Berks County,Pennsylvania State Athletic Conference,Pennsylvania State Athletic Conference,72507017
Austin Peay State University,TN,"Public, 4-year or above",-87.354081,36.533319,Montgomery County,Ohio Valley Conference,Ohio Valley Conference,72406089
California University of Pennsylvania,PA,"Public, 4-year or above",-79.884477,40.066473,Washington County,Pennsylvania State Athletic Conference,Pennsylvania State Athletic Conference,71800658
San Joaquin Valley College-Central Administrative Office,CA,Administrative Unit,-119.333362,36.298938,Tulare County,NA,NA,71675601
San Joaquin Valley College-Central Administrative Office,CA,Administrative Unit,-119.333362,36.298938,Tulare County,NA,NA,71675601
University of Central Arkansas,AR,"Public, 4-year or above",-92.457672,35.077945,Faulkner County,Southland Conference,Southland Conference,71394398
Sacred Heart University,CT,"Private not-for-profit, 4-year or above",-73.24461,41.221548,Fairfield County,Northeast Conference,Northeast Conference,71369414
Villanova University,PA,"Private not-for-profit, 4-year or above",-75.345457,40.039388,Delaware County,Colonial Athletic Association,Big East Conference,70757084
University of Northern Iowa,IA,"Public, 4-year or above",-92.459703,42.514923,Black Hawk County,Missouri Valley Conference,Missouri Valley Conference,70365547
Florida Institute of Technology,FL,"Private not-for-profit, 4-year or above",-80.624628,28.064503,Brevard County,Gulf South Conference,Sunshine State Conference,70331961
Florida Institute of Technology,FL,"Private not-for-profit, 4-year or above",-80.624628,28.064503,Brevard County,Gulf South Conference,Sunshine State Conference,70331961
Southeastern Louisiana University,LA,"Public, 4-year or above",-90.468676,30.514652,Tangipahoa Parish,Southland Conference,Southland Conference,70317332
Rosalind Franklin University of Medicine and Science,IL,"Private not-for-profit, 4-year or above",-87.859632,42.300069,Lake County,NA,NA,70209492
Bridgewater State University,MA,"Public, 4-year or above",-70.974553,41.98749,Plymouth County,New England Football Conference,Massachusetts State College Ath Assoc,69945592
Concordia University-Wisconsin,WI,"Private not-for-profit, 4-year or above",-87.916628,43.254217,Ozaukee County,Northern Athletics Collegiate Conference,Northern Athletics Collegiate Conference,69690506
The University of Tennessee-Chattanooga,TN,"Public, 4-year or above",-85.299812,35.048247,Hamilton County,Southern Conference,Southern Conference,69570963
Samford University,AL,"Private not-for-profit, 4-year or above",-86.791799,33.464128,Jefferson County,Southern Conference,Southern Conference,68420253
Florida Gulf Coast University,FL,"Public, 4-year or above",-81.773578,26.464262,NA,NA,NA,68206695
Sanford Burnham Prebys Medical Discovery Institute,CA,"Private not-for-profit, 4-year or above",-117.241769,32.900034,San Diego County,NA,NA,68188465
Madison Area Technical College,WI,"Public, 4-year or above",-89.327921,43.12183,Dane County,NA,NA,68185303
University of Central Missouri,MO,"Public, 4-year or above",-93.737445,38.755882,Johnson County,Mid-America Intercollegiate Ath Assoc,Mid-America Intercollegiate Ath Assoc,68106875
CUNY Brooklyn College,NY,"Public, 4-year or above",-73.95312,40.631912,Kings County,NA,City University of New York Ath Conf,68052777
University of Wisconsin-Oshkosh,WI,"Public, 4-year or above",-88.549282,44.024985,Winnebago County,Wisconsin Intercollegiate Ath Conf,Wisconsin Intercollegiate Ath Conference,67964165
Stockton University,NJ,"Public, 4-year or above",-74.531087,39.492036,Atlantic County,NA,New Jersey Athletic Conference,67948957
University of Massachusetts-Dartmouth,MA,"Public, 4-year or above",-71.005528,41.628861,Bristol County,Massachusetts State College Ath Assoc,Little East Conference,67896768
SUNY College at Oswego,NY,"Public, 4-year or above",-76.543885,43.453047,Oswego County,NA,State University of New York Ath Conf,67737485
The University of Tampa,FL,"Private not-for-profit, 4-year or above",-82.465582,27.947225,Hillsborough County,NA,Sunshine State Conference,67629512
Fort Hays State University,KS,"Public, 4-year or above",-99.340493,38.872436,Ellis County,Mid-America Intercollegiate Ath Assoc,Mid-America Intercollegiate Ath Assoc,67537114
Humboldt State University,CA,"Public, 4-year or above",-124.0814,40.8741,Humboldt County,Great Northwest Athletic Conference,California Collegiate Athletic Assoc,66987158
Meharry Medical College,TN,"Private not-for-profit, 4-year or above",-86.807371,36.165458,Davidson County,NA,NA,66596482
University of California-Merced,CA,"Public, 4-year or above",-120.424944,37.366237,Merced County,NA,California Pacific Conference,66570793
Savannah State University,GA,"Public, 4-year or above",-81.063377,32.024781,Chatham County,Mid-Eastern Athletic Conference,Mid-Eastern Athletic Conference,66339740
University of St Thomas,MN,"Private not-for-profit, 4-year or above",-93.189422,44.941662,Ramsey County,Minnesota Intercollegiate Ath Conf,Minnesota Intercollegiate Ath Conf,66335354
Georgia Gwinnett College,GA,"Public, 4-year or above",-84.001135,33.979915,Gwinnett County,NA,NA,66267368
Xavier University of Louisiana,LA,"Private not-for-profit, 4-year or above",-90.107307,29.964162,Orleans Parish,NA,Gulf Coast Athletic Conference,66022111
SIT Graduate Institute,VT,"Private not-for-profit, 4-year or above",-72.56738,42.891035,Windham County,NA,NA,65963963
University of New Haven,CT,"Private not-for-profit, 4-year or above",-72.961472,41.291314,New Haven County,Northeast 10 Conference,Northeast 10 Conference,65379168
Weber State University,UT,"Public, 4-year or above",-111.944845,41.192591,Weber County,Big Sky Conference,Big Sky Conference,65252859
Columbus State University,GA,"Public, 4-year or above",-84.940796,32.501556,Muscogee County,NA,Peach Belt Conference,64854712
Albany State University,GA,"Public, 4-year or above",-84.141825,31.56928,Dougherty County,Southern Intercollegiate Athletic Conf,Southern Intercollegiate Athletic Conf,64594239
Virginia State University,VA,"Public, 4-year or above",-77.419886,37.236453,Chesterfield County,Central Intercollegiate Athletic Assoc,Central Intercollegiate Athletic Assoc,64480419
Northwestern State University of Louisiana,LA,"Public, 4-year or above",-93.097797,31.750666,Natchitoches Parish,Southland Conference,Southland Conference,64212531
Brandeis University,MA,"Private not-for-profit, 4-year or above",-71.254716,42.364947,Middlesex County,NA,University Athletic Association,63970892
California State University-Bakersfield,CA,"Public, 4-year or above",-119.104711,35.350005,Kern County,NA,Western Athletic Conference,63922375
Baton Rouge Community College,LA,"Public, 2-year",-91.137935,30.448276,East Baton Rouge Parish,NA,NA,63870615
University of Baltimore,MD,"Public, 4-year or above",-76.616591,39.305834,Baltimore City,NA,NA,63848511
Illinois Institute of Technology,IL,"Private not-for-profit, 4-year or above",-87.627321,41.8313,Cook County,NA,Division III Independents,63783808
Hinds Community College,MS,"Public, 2-year",-90.416118,32.256109,Hinds County,NA,NA,63416914
Michigan Technological University,MI,"Public, 4-year or above",-88.546403,47.1183,Houghton County,Great Lakes Intercollegiate Ath Conf,Great Lakes Intercollegiate Ath Conf,63340845
Murray State University,KY,"Public, 4-year or above",-88.323629,36.612419,Calloway County,Ohio Valley Conference,Ohio Valley Conference,63283796
Catholic University of America,DC,"Private not-for-profit, 4-year or above",-76.998961,38.935796,District Of Columbia,Old Dominion Athletic Conference,Landmark Conference,63277251
SUNY Downstate Medical Center,NY,"Public, 4-year or above",-73.943827,40.655283,Kings County,NA,NA,63264921
Salisbury University,MD,"Public, 4-year or above",-75.605705,38.345447,Wicomico County,Empire Eight,Capital Athletic Conference,63213711
Saginaw Valley State University,MI,"Public, 4-year or above",-83.96434,43.55187,Isabella County,NA,NA,63036426
CUNY John Jay College of Criminal Justice,NY,"Public, 4-year or above",-73.988874,40.770917,New York County,NA,City University of New York Ath Conf,62611864
Saint Joseph's University,PA,"Private not-for-profit, 4-year or above",-75.238343,39.994442,Philadelphia County,NA,Atlantic 10 Conference,62543993
Colorado School of Mines,CO,"Public, 4-year or above",-105.227148,39.75079,Jefferson County,Rocky Mountain Athletic Conference,Rocky Mountain Athletic Conference,62490110
Samuel Merritt University,CA,"Private not-for-profit, 4-year or above",-122.266331,37.82029,Alameda County,NA,NA,62444820
Delaware State University,DE,"Public, 4-year or above",-75.54053,39.187173,Kent County,Mid-Eastern Athletic Conference,Mid-Eastern Athletic Conference,62410056
Irell & Manella Graduate School of Biological Sciences at City of Hope,CA,"Private not-for-profit, 4-year or above",-117.972791,34.129048,Los Angeles County,NA,NA,62348557
Eastern Virginia Medical School,VA,"Public, 4-year or above",-76.300694,36.861232,Norfolk City,NA,NA,62292619
Roosevelt University,IL,"Private not-for-profit, 4-year or above",-87.624952,41.876055,Cook County,NA,Chicagoland Collegiate Athletic Conf,62215671
Monmouth University,NJ,"Private not-for-profit, 4-year or above",-74.006447,40.280066,Monmouth County,Big South Conference,Metro Atlantic Athletic Conference,62185397
Salem State University,MA,"Public, 4-year or above",-70.889321,42.502879,Essex County,NA,Massachusetts State College Ath Assoc,62156815
Pratt Institute-Main,NY,"Private not-for-profit, 4-year or above",-73.962149,40.691154,Kings County,NA,NA,62061118
Morehead State University,KY,"Public, 4-year or above",-83.434021,38.186768,Rowan County,Pioneer Football League,Ohio Valley Conference,62030069
Bellevue University,NE,"Private not-for-profit, 4-year or above",-95.91764,41.150225,Sarpy County,NA,North Star Athletic Association,61761286
John Tyler Community College,VA,"Public, 2-year",-77.407937,37.346261,Chesterfield County,NA,NA,61714055
CUNY Lehman College,NY,"Public, 4-year or above",-73.894627,40.873928,Bronx County,NA,City University of New York Ath Conf,61592412
Des Moines University-Osteopathic Medical Center,IA,"Private not-for-profit, 4-year or above",-93.661686,41.583325,Polk County,NA,NA,61376568
Arkansas Tech University,AR,"Public, 4-year or above",-93.13562,35.293237,Pope County,Great American Conference,Great American Conference,61072617
Texas A & M University-Kingsville,TX,"Public, 4-year or above",-97.882342,27.524852,Kleberg County,Lone Star Conference,Lone Star Conference,61008324
Belhaven University,MS,"Private not-for-profit, 4-year or above",-90.169228,32.318415,Hinds County,American Southwest Conference,American Southwest Conference,60984419
University of Alaska Anchorage,AK,"Public, 4-year or above",-149.82619,61.190163,Anchorage Municipality,NA,Great Northwest Athletic Conference,60828671
The Community College of Baltimore County,MD,"Public, 2-year",-76.48211,39.352647,Baltimore County,NA,NA,60758067
SUNY College at Brockport,NY,"Public, 4-year or above",-77.949824,43.209862,NA,NA,NA,60749870
College of Southern Nevada,NV,"Public, 4-year or above",-115.233784,36.158443,Clark County,NA,NA,60511390
The University of Texas at Tyler,TX,"Public, 4-year or above",-95.249096,32.314724,Smith County,NA,American Southwest Conference,60238021
Gonzaga University,WA,"Private not-for-profit, 4-year or above",-117.403062,47.668144,Spokane County,NA,West Coast Conference,60106215
Bethel University,TN,"Private not-for-profit, 4-year or above",-88.516162,36.139271,Carroll County,Mid-South Conference,TranSouth Athletic Conference,60065613
SUNY Empire State College,NY,"Public, 4-year or above",-73.782484,43.077283,Saratoga County,NA,NA,59871502
Clayton  State University,GA,"Public, 4-year or above",-84.328174,33.594079,Clayton County,NA,Peach Belt Conference,59744064
Edinboro University of Pennsylvania,PA,"Public, 4-year or above",-80.126363,41.869978,Erie County,Pennsylvania State Athletic Conference,Pennsylvania State Athletic Conference,59499822
CUNY Queens College,NY,"Public, 4-year or above",-73.816098,40.735182,Queens County,NA,East Coast Conference,59231833
Western Michigan University-Thomas M. Cooley Law School,MI,"Private not-for-profit, 4-year or above",-84.554429,42.731,Ingham County,NA,NA,59217745
Stetson University,FL,"Private not-for-profit, 4-year or above",-81.300746,29.035475,Volusia County,Pioneer Football League,Atlantic Sun Conference,59075102
Bowie State University,MD,"Public, 4-year or above",-76.759721,39.018185,Prince George'S County,Central Intercollegiate Athletic Assoc,Central Intercollegiate Athletic Assoc,58879772
University of Michigan-Flint,MI,"Public, 4-year or above",-83.688474,43.018777,Genesee County,NA,NA,58876684
West Texas A & M University,TX,"Public, 4-year or above",-101.9158,34.981996,Randall County,Lone Star Conference,Lone Star Conference,58787604
William Carey University,MS,"Private not-for-profit, 4-year or above",-89.291815,31.305264,Forrest County,NA,Southern States Athletic Conference,58684789
Bethune-Cookman University,FL,"Private not-for-profit, 4-year or above",-81.031429,29.210193,Volusia County,Mid-Eastern Athletic Conference,Mid-Eastern Athletic Conference,58397496
University of Louisiana at Monroe,LA,"Public, 4-year or above",-92.07374,32.527748,Ouachita Parish,Sun Belt Conference,Sun Belt Conference,58344727
CUNY Bernard M Baruch College,NY,"Public, 4-year or above",-73.983417,40.740238,New York County,NA,City University of New York Ath Conf,58120988
El Paso Community College,TX,"Public, 2-year",-106.371671,31.77234,El Paso County,NA,NA,57871037
Sonoma State University,CA,"Public, 4-year or above",-122.673261,38.341023,Sonoma County,NA,California Collegiate Athletic Assoc,57651438
University of North Carolina at Pembroke,NC,"Public, 4-year or above",-79.201895,34.687231,Robeson County,Division II Independents,Peach Belt Conference,57493519
Fayetteville State University,NC,"Public, 4-year or above",-78.891696,35.073641,Cumberland County,Central Intercollegiate Athletic Assoc,Central Intercollegiate Athletic Assoc,57479810
Southeast Missouri State University,MO,"Public, 4-year or above",-89.529119,37.31575,Cape Girardeau County,Ohio Valley Conference,Ohio Valley Conference,57467634
University of Hartford,CT,"Private not-for-profit, 4-year or above",-72.714965,41.796485,Hartford County,NA,America East,57459796
California State University-Stanislaus,CA,"Public, 4-year or above",-120.852511,37.52577,Stanislaus County,NA,California Collegiate Athletic Assoc,57268604
Winston-Salem State University,NC,"Public, 4-year or above",-80.224905,36.089197,Forsyth County,Central Intercollegiate Athletic Assoc,Central Intercollegiate Athletic Assoc,57210291
Colorado Mesa University,CO,"Public, 4-year or above",-108.553275,39.080643,Mesa County,Rocky Mountain Athletic Conference,Rocky Mountain Athletic Conference,56960509
Cuyahoga Community College District,OH,"Public, 2-year",-81.683533,41.494906,Cuyahoga County,NA,NA,56940519
Millersville University of Pennsylvania,PA,"Public, 4-year or above",-76.357381,40.000337,Lancaster County,Pennsylvania State Athletic Conference,Pennsylvania State Athletic Conference,56813159
New Jersey City University,NJ,"Public, 4-year or above",-74.08727,40.709937,Hudson County,NA,Eastern College Athletic Conference,56724931
Antioch University,OH,"Private not-for-profit, 4-year or above",-83.908684,39.80321,Greene County,NA,NA,56541623
Monroe Community College,NY,"Public, 2-year",-77.608488,43.101265,Monroe County,NA,NA,56519446
Front Range Community College,CO,"Public, 2-year",-105.039359,39.901757,Adams County,NA,NA,56487863
Texas Christian University,TX,"Private not-for-profit, 4-year or above",-97.361537,32.709568,Tarrant County,Big Twelve Conference,Big Twelve Conference,56252045
Texas Christian University,TX,"Private not-for-profit, 4-year or above",-97.361537,32.709568,Tarrant County,Big Twelve Conference,Big Twelve Conference,56252045
Shippensburg University of Pennsylvania,PA,"Public, 4-year or above",-77.5229,40.057405,Cumberland County,Pennsylvania Athletic Conference,Pennsylvania Athletic Conference,56249973
Pennsylvania College of Technology,PA,"Public, 4-year or above",-77.023665,41.234145,Lycoming County,NA,North Eastern Athletic Conference,56159572
University of Wisconsin-La Crosse,WI,"Public, 4-year or above",-91.230149,43.815295,La Crosse County,Wisconsin Intercollegiate Ath Conf,Wisconsin Intercollegiate Ath Conference,56004410
Palm Beach State College,FL,"Public, 4-year or above",-80.08653,26.61256,Palm Beach County,NA,NA,55984973
Northeastern Illinois University,IL,"Public, 4-year or above",-87.72013,41.980567,Cook County,NA,NA,55827896
Harding University,AR,"Private not-for-profit, 4-year or above",-91.729008,35.249605,White County,Great American Conference,Great American Conference,55637473
Morehouse School of Medicine,GA,"Private not-for-profit, 4-year or above",-84.41186,33.742888,Fulton County,NA,NA,55291126
South Texas College,TX,"Public, 4-year or above",-98.253634,26.217591,Hidalgo County,NA,NA,55041607
University of Oklahoma-Health Sciences Center,OK,"Public, 4-year or above",-97.496289,35.47928,Oklahoma County,NA,NA,54998669
Metropolitan State University,MN,"Public, 4-year or above",-93.074361,44.957256,Ramsey County,NA,NA,54938506
East Stroudsburg University of Pennsylvania,PA,"Public, 4-year or above",-75.172614,40.99622,Monroe County,Pennsylvania State Athletic Conference,Pennsylvania State Athletic Conference,54790927
University of Southern Maine,ME,"Public, 4-year or above",-70.276002,43.662637,Cumberland County,NA,Little East Conference,54769077
Santa Clara University,CA,"Private not-for-profit, 4-year or above",-121.938189,37.352706,Santa Clara County,NA,West Coast Conference,54660727
Brite Divinity School,TX,"Private not-for-profit, 4-year or above",-97.361561,32.709543,Tarrant County,NA,NA,54374154
Brite Divinity School,TX,"Private not-for-profit, 4-year or above",-97.361561,32.709543,Tarrant County,NA,NA,54374154
Ithaca College,NY,"Private not-for-profit, 4-year or above",-76.494136,42.422154,Tompkins County,Empire Eight,Empire Eight,54194719
Armstrong State University,GA,"Public, 4-year or above",-81.160409,31.978109,Chatham County,NA,Peach Belt Conference,53975557
SUNY College at Cortland,NY,"Public, 4-year or above",-76.197909,42.590158,NA,NA,NA,53861972
SUNY Cortland,NY,"Public, 4-year or above",-76.188655,42.598022,Cortland County,Empire Eight,State University of New York Ath Conf,53861972
Jacksonville State University,AL,"Public, 4-year or above",-85.765321,33.822938,Calhoun County,Ohio Valley Conference,Ohio Valley Conference,53478187
University of Indianapolis,IN,"Private not-for-profit, 4-year or above",-86.134747,39.709671,Marion County,Great Lakes Valley Conference,Great Lakes Valley Conference,53288078
Lewis University,IL,"Private not-for-profit, 4-year or above",-88.079032,41.605432,Will County,NA,Great Lakes Valley Conference,53066328
University of Redlands,CA,"Private not-for-profit, 4-year or above",-117.163847,34.063571,San Bernardino County,Southern California Intercoll Ath Conf,Southern California Intercoll Ath Conf,53047260
University of Maryland Eastern Shore,MD,"Public, 4-year or above",-75.686852,38.207386,Somerset County,NA,Mid-Eastern Athletic Conference,52921177
Drake University,IA,"Private not-for-profit, 4-year or above",-93.652163,41.60129,Polk County,Pioneer Football League,Missouri Valley Conference,52807959
Montgomery College,MD,"Public, 2-year",-77.159471,39.09793,Montgomery County,NA,NA,52565244
Lipscomb University,TN,"Private not-for-profit, 4-year or above",-86.799304,36.10469,Davidson County,NA,Atlantic Sun Conference,52565161
Shenandoah University,VA,"Private not-for-profit, 4-year or above",-78.158376,39.166058,Winchester City,Old Dominion Athletic Conference,Old Dominion Athletic Conference,52449969
Milwaukee Area Technical College,WI,"Public, 2-year",-87.920818,43.04359,Milwaukee County,NA,NA,52432711
Springfield College,MA,"Private not-for-profit, 4-year or above",-72.556751,42.101576,Hampden County,Upstate Collegiate Athletic Association,New England Women's & Men's Athletic Conference,52399025
Springfield College,MA,"Private not-for-profit, 4-year or above",-72.556751,42.101576,Hampden County,Upstate Collegiate Athletic Association,New England Women's & Men's Athletic Conference,52399025
CUNY New York City College of Technology,NY,"Public, 4-year or above",-73.987856,40.695483,Kings County,NA,City University of New York Ath Conf,52364705
Purdue University-Calumet Campus,IN,"Public, 4-year or above",-87.47376,41.584742,Lake County,NA,Chicagoland Collegiate Athletic Conf,52306916
Saint John Fisher College,NY,"Private not-for-profit, 4-year or above",-77.513056,43.116259,Monroe County,Empire Eight,Empire Eight,52174776
Henry Ford College,MI,"Public, 4-year or above",-83.238409,42.324577,Wayne County,NA,NA,52091491
Winthrop University,SC,"Public, 4-year or above",-81.031404,34.941515,York County,NA,Big South Conference,51857342
Marian University,IN,"Private not-for-profit, 4-year or above",-86.204599,39.81534,Marion County,Mid-States Football Association,Crossroads League,51834854
La Salle University,PA,"Private not-for-profit, 4-year or above",-75.153061,40.037979,Philadelphia County,NA,Atlantic 10 Conference,51734193
Aurora University,IL,"Private not-for-profit, 4-year or above",-88.349469,41.754465,Kane County,Northern Athletics Collegiate Conference,Northern Athletics Collegiate Conference,51707445
Fort Valley State University,GA,"Public, 4-year or above",-83.895548,32.538163,Peach County,Southern Intercollegiate Athletic Conf,Southern Intercollegiate Athletic Conf,51567555
Spelman College,GA,"Private not-for-profit, 4-year or above",-84.411527,33.745279,Fulton County,NA,NA,51435444
Roger Williams University,RI,"Private not-for-profit, 4-year or above",-71.260374,41.650214,Bristol County,NA,Commonwealth Coast Conference,51284440
Loyola University Maryland,MD,"Private not-for-profit, 4-year or above",-76.623417,39.346044,Baltimore City,NA,Patriot League,51264504
St Thomas University,FL,"Private not-for-profit, 4-year or above",-80.256265,25.920915,Miami-Dade County,NA,Florida Sun Conference,51021223
Blinn College,TX,"Public, 2-year",-96.409677,30.159713,Washington County,NA,NA,50965862
Louisiana Tech University,LA,"Public, 4-year or above",-92.649963,32.528297,Lincoln Parish,Conference USA,Conference USA,50922548
Wayne County Community College District,MI,"Public, 2-year",-83.055527,42.326515,Wayne County,NA,NA,50865477
Ozarks Technical Community College,MO,"Public, 2-year",-93.279985,37.216479,Greene County,NA,NA,50809677
University of Wisconsin-Stout,WI,"Public, 4-year or above",-91.926653,44.873187,Dunn County,Wisconsin Intercollegiate Ath Conf,Wisconsin Intercollegiate Ath Conference,50542244
South Carolina State University,SC,"Public, 4-year or above",-80.851185,33.497439,Orangeburg County,Mid-Eastern Athletic Conference,Mid-Eastern Athletic Conference,50477719
University of West Alabama,AL,"Public, 4-year or above",-88.186329,32.588132,Sumter County,Gulf South Conference,Gulf South Conference,50403704
University of Bridgeport,CT,"Private not-for-profit, 4-year or above",-73.189352,41.165587,Fairfield County,NA,East Coast Conference,50386205
University of Houston-System Administration,TX,Administrative Unit,-95.343537,29.720393,Harris County,NA,NA,50303522
Saint Mary's University of Minnesota,MN,"Private not-for-profit, 4-year or above",-91.696652,44.045322,Winona County,NA,Minnesota Intercollegiate Ath Conf,50189836
Chicago State University,IL,"Public, 4-year or above",-87.610344,41.718813,Cook County,NA,Western Athletic Conference,50137441
Guilford Technical Community College,NC,"Public, 2-year",-79.92062,35.99846,Guilford County,NA,NA,49957453
Bastyr University,WA,"Private not-for-profit, 4-year or above",-122.251708,47.729935,King County,NA,NA,49922029
Northeastern State University,OK,"Public, 4-year or above",-94.968528,35.920499,Cherokee County,Mid-America Intercollegiate Ath Assoc,Mid-America Intercollegiate Ath Assoc,49915267
Sinclair Community College,OH,"Public, 2-year",-84.200628,39.757598,Montgomery County,NA,NA,49810943
Philadelphia University,PA,"Private not-for-profit, 4-year or above",-75.192645,40.022882,Philadelphia County,NA,Central Atlantic Collegiate Conf,49773496
Berklee College of Music,MA,"Private not-for-profit, 4-year or above",-71.08703,42.346895,Suffolk County,NA,NA,49766654
University of Scranton,PA,"Private not-for-profit, 4-year or above",-75.658031,41.40715,Lackawanna County,NA,Landmark Conference,49743457
Tennessee Technological University,TN,"Public, 4-year or above",-85.503957,36.174659,Putnam County,Ohio Valley Conference,Ohio Valley Conference,49651400
University of Wisconsin-Eau Claire,WI,"Public, 4-year or above",-91.500432,44.798431,Eau Claire County,Wisconsin Intercollegiate Ath Conf,Wisconsin Intercollegiate Ath Conference,49510141
St Catherine University,MN,"Private not-for-profit, 4-year or above",-93.181925,44.924542,Ramsey County,NA,Minnesota Intercollegiate Ath Conf,49275648
Texas State Technical College,TX,"Public, 2-year",-97.08471,31.639295,Mclennan County,NA,NA,49067846
Benedictine University,IL,"Private not-for-profit, 4-year or above",-88.095948,41.776395,Dupage County,Northern Athletics Collegiate Conference,Northern Athletics Collegiate Conference,48851305
Elon University,NC,"Private not-for-profit, 4-year or above",-79.505632,36.104149,Alamance County,Colonial Athletic Association,Colonial Athletic Association,48732086
Lesley University,MA,"Private not-for-profit, 4-year or above",-71.115601,42.378429,Middlesex County,NA,New England Collegiate Conference,48658890
Carrington College-Administrative Office,CA,Administrative Unit,-121.412967,38.551606,Sacramento County,NA,NA,48599967
Seminole State College of Florida,FL,"Public, 4-year or above",-81.305606,28.74475,Seminole County,NA,NA,48556656
State University of New York at New Paltz,NY,"Public, 4-year or above",-74.088727,41.737205,NA,NA,NA,48503476
Middle Georgia State University,GA,"Public, 4-year or above",-83.732058,32.808092,Bibb County,NA,Southern States Athletic Conference,48466147
College of Staten Island CUNY,NY,"Public, 4-year or above",-74.14849,40.601831,Richmond County,NA,City University of New York Ath Conf,48418470
Park University,MO,"Private not-for-profit, 4-year or above",-94.677086,39.189477,Platte County,NA,American Midwest Conference,48386575
Bradley University,IL,"Private not-for-profit, 4-year or above",-89.61462,40.697605,Peoria County,NA,Missouri Valley Conference,48377535
Molloy College,NY,"Private not-for-profit, 4-year or above",-73.626278,40.68597,Nassau County,NA,East Coast Conference,48351124
California State University-Monterey Bay,CA,"Public, 4-year or above",-121.799216,36.653724,Monterey County,NA,California Collegiate Athletic Assoc,48330528
Rhode Island College,RI,"Public, 4-year or above",-71.46556,41.842415,Providence County,NA,Little East Conference,48319141
University of Michigan-Dearborn,MI,"Public, 4-year or above",-83.231417,42.317287,Wayne County,NA,Wolverine-Hoosier Athletic Conference,48291624
Alcorn State University,MS,"Public, 4-year or above",-91.142854,31.877216,Claiborne County,Southwestern Athletic Conference,Southwestern Athletic Conference,48260538
Mississippi College,MS,"Private not-for-profit, 4-year or above",-90.329821,32.335515,Hinds County,Gulf South Conference,Gulf South Conference,48209926
Trident Technical College,SC,"Public, 2-year",-80.030388,32.925912,Charleston County,NA,NA,48169501
Clarion University of Pennsylvania,PA,"Public, 4-year or above",-79.377501,41.207805,Clarion County,Pennsylvania State Athletic Conference,Pennsylvania State Athletic Conference,48054166
Nassau Community College,NY,"Public, 2-year",-73.595286,40.728872,Nassau County,NA,NA,48030753
Lehigh University,PA,"Private not-for-profit, 4-year or above",-75.378887,40.607158,Northampton County,Patriot League,Patriot League,47754470
Xavier University,OH,"Private not-for-profit, 4-year or above",-84.477648,39.149291,Hamilton County,NA,Big East Conference,47667667
Eastern Illinois University,IL,"Public, 4-year or above",-88.175505,39.483017,Coles County,Ohio Valley Conference,Ohio Valley Conference,47603508
Northern Michigan University,MI,"Public, 4-year or above",-87.403857,46.558037,Marquette County,Great Lakes Intercollegiate Ath Conf,Great Lakes Intercollegiate Ath Conf,47508761
Des Moines Area Community College,IA,"Public, 2-year",-93.611597,41.707348,Polk County,NA,NA,47486874
Tulsa Community College,OK,"Public, 2-year",-95.90825,36.106788,Tulsa County,NA,NA,47397633
Upper Iowa University,IA,"Private not-for-profit, 4-year or above",-91.799663,42.840293,Fayette County,Northern Sun Intercollegiate Conference,Northern Sun Intercollegiate Conference,47263736
Clarkson University,NY,"Private not-for-profit, 4-year or above",-74.999947,44.663761,St. Lawrence County,NA,Upstate Collegiate Athletic Association,47013610
Kirkwood Community College,IA,"Public, 2-year",-91.651172,41.911268,Linn County,NA,NA,46950181
Mount Saint Mary's University,CA,"Private not-for-profit, 4-year or above",-118.480471,34.082112,Los Angeles County,NA,NA,46888215
Upstate Medical University,NY,"Public, 4-year or above",-76.138976,43.042951,Onondaga County,NA,NA,46882485
Southeastern University,FL,"Private not-for-profit, 4-year or above",-81.918997,28.031864,Polk County,Florida Sun Conference,Florida Sun Conference,46794031
California State University-Channel Islands,CA,"Public, 4-year or above",-119.04356,34.162949,Ventura County,NA,NA,46730082
Salt Lake Community College,UT,"Public, 2-year",-111.942809,40.671575,Salt Lake County,NA,NA,46632993
University of the Cumberlands,KY,"Private not-for-profit, 4-year or above",-84.161646,36.737048,Whitley County,Mid-South Conference,Mid-South Conference,46532801
Morehouse College,GA,"Private not-for-profit, 4-year or above",-84.415156,33.74793,Fulton County,Southern Intercollegiate Athletic Conf,Southern Intercollegiate Athletic Conf,46525755
Marist College,NY,"Private not-for-profit, 4-year or above",-73.934342,41.721955,Dutchess County,Pioneer Football League,Metro Atlantic Athletic Conference,46423086
St. Mary's University,TX,"Private not-for-profit, 4-year or above",-98.564307,29.451793,Bexar County,NA,Heartland Conference,46386644
Our Lady of the Lake University,TX,"Private not-for-profit, 4-year or above",-98.54395,29.425611,Bexar County,NA,Red River Athletic Conference,46343327
Robert Morris University,PA,"Private not-for-profit, 4-year or above",-80.210468,40.520415,Allegheny County,Northeast Conference,Northeast Conference,46312802
Angelo State University,TX,"Public, 4-year or above",-100.466495,31.44145,Tom Green County,Lone Star Conference,Lone Star Conference,46069215
Eastern Florida State College,FL,"Public, 4-year or above",-80.75813,28.384791,Brevard County,NA,NA,46061349
Winona State University,MN,"Public, 4-year or above",-91.643723,44.046159,Winona County,Northern Sun Intercollegiate Conference,Northern Sun Intercollegiate Conference,46053486
University of Southern Indiana,IN,"Public, 4-year or above",-87.67666,37.966188,Vanderburgh County,NA,Great Lakes Valley Conference,46050313
University of South Carolina-Upstate,SC,"Public, 4-year or above",-81.970583,34.996403,Spartanburg County,NA,Atlantic Sun Conference,46028591
Pima Community College,AZ,"Public, 2-year",-110.887033,32.221737,Pima County,NA,NA,45878955
Fayetteville Technical Community College,NC,"Public, 2-year",-78.92658,35.068851,Cumberland County,NA,NA,45735169
University of Wisconsin-Stevens Point,WI,"Public, 4-year or above",-89.570934,44.529582,NA,NA,NA,45555206
SUNY Oneonta,NY,"Public, 4-year or above",-75.063632,42.468861,Otsego County,NA,State University of New York Ath Conf,45543820
Rider University,NJ,"Private not-for-profit, 4-year or above",-74.737833,40.278796,Mercer County,NA,Metro Atlantic Athletic Conference,45540463
Western New England University,MA,"Private not-for-profit, 4-year or above",-72.518789,42.115837,Hampden County,New England Football Conference,Commonwealth Coast Conference,45537294
Community College of Allegheny County,PA,"Public, 2-year",-80.018453,40.450908,Allegheny County,NA,NA,45291973
Plymouth State University,NH,"Public, 4-year or above",-71.691164,43.757386,Grafton County,Massachusetts State College Ath Assoc,Little East Conference,44936001
Utica College,NY,"Private not-for-profit, 4-year or above",-75.272407,43.095183,Oneida County,Empire Eight,Empire Eight,44890441
Parker University,TX,"Private not-for-profit, 4-year or above",-96.893572,32.880341,Dallas County,NA,NA,44870769
Texas A & M International University,TX,"Public, 4-year or above",-99.435225,27.573504,Webb County,NA,Heartland Conference,44860002
Point Loma Nazarene University,CA,"Private not-for-profit, 4-year or above",-117.251204,32.713295,San Diego County,NA,Pacific West Conference,44667206
Ohio Christian University,OH,"Private not-for-profit, 4-year or above",-82.905986,39.610895,Pickaway County,NA,Kentucky Intercollegiate Ath Conf,44458489
The College of Saint Scholastica,MN,"Private not-for-profit, 4-year or above",-92.105738,46.81544,St. Louis County,Upper Midwest Athletic Conference,Upper Midwest Athletic Conference,44410158
Fashion Institute of Technology,NY,"Public, 4-year or above",-73.994781,40.74731,New York County,NA,NA,44298264
Western Oregon University,OR,"Public, 4-year or above",-123.238309,44.852235,Polk County,Great Northwest Athletic Conference,Great Northwest Athletic Conference,44290387
Washburn University,KS,"Public, 4-year or above",-95.702325,39.034977,Shawnee County,Mid-America Intercollegiate Ath Assoc,Mid-America Intercollegiate Ath Assoc,44274554
Stevenson University,MD,"Private not-for-profit, 4-year or above",-76.701247,39.421264,Baltimore County,Commonwealth Conference,Commonwealth Conference,44214893
University of North Alabama,AL,"Public, 4-year or above",-87.681361,34.806738,Lauderdale County,Gulf South Conference,Gulf South Conference,44103069
Worcester Polytechnic Institute,MA,"Private not-for-profit, 4-year or above",-71.808792,42.275067,Worcester County,Upstate Collegiate Athletic Association,New England Women's & Men's Athletic Conference,43776383
CUNY Bronx Community College,NY,"Public, 2-year",-73.912043,40.858112,Bronx County,NA,NA,43755005
Indiana University-Purdue University-Fort Wayne,IN,"Public, 4-year or above",-85.111747,41.115418,Allen County,NA,The Summit League,43654417
Greenville Technical College,SC,"Public, 2-year",-82.371051,34.82156,Greenville County,NA,NA,43576685
Suffolk County Community College,NY,"Public, 2-year",-73.056165,40.848963,Suffolk County,NA,NA,43131070
Mercyhurst University,PA,"Private not-for-profit, 4-year or above",-80.055568,42.103991,Erie County,Pennsylvania State Athletic Conference,Pennsylvania State Athletic Conference,42728491
Point Park University,PA,"Private not-for-profit, 4-year or above",-80.001462,40.438526,Allegheny County,NA,Kentucky Intercollegiate Ath Conf,42711434
Ashland University,OH,"Private not-for-profit, 4-year or above",-82.320621,40.860987,Ashland County,Great Lakes Intercollegiate Ath Conf,Great Lakes Intercollegiate Ath Conf,42604641
Long Beach City College,CA,"Public, 2-year",-118.135819,33.831741,Los Angeles County,NA,NA,42597101
CUNY LaGuardia Community College,NY,"Public, 2-year",-73.935057,40.7445,Queens County,NA,NA,42593056
University of Hawaii at Hilo,HI,"Public, 4-year or above",-155.081329,19.701854,Hawaii County,NA,Pacific West Conference,42568027
George Fox University,OR,"Private not-for-profit, 4-year or above",-122.968394,45.30399,Yamhill County,Northwest Conference,Northwest Conference,42463201
The University of Tennessee-Martin,TN,"Public, 4-year or above",-88.864211,36.340338,Weakley County,Ohio Valley Conference,Ohio Valley Conference,42432656
Benedict College,SC,"Private not-for-profit, 4-year or above",-81.021412,34.011285,Richland County,Southern Intercollegiate Athletic Conf,Southern Intercollegiate Athletic Conf,42220935
Valparaiso University,IN,"Private not-for-profit, 4-year or above",-87.040172,41.462239,Porter County,Pioneer Football League,Horizon League,42202367
Lewis & Clark College,OR,"Private not-for-profit, 4-year or above",-122.672478,45.450547,Multnomah County,Northwest Conference,Northwest Conference,42125958
Midwestern State University,TX,"Public, 4-year or above",-98.51774,33.877143,Wichita County,Lone Star Conference,Lone Star Conference,42116901
University of the Sciences,PA,"Private not-for-profit, 4-year or above",-75.208241,39.946552,Philadelphia County,NA,Central Atlantic Collegiate Conf,42104011
Union University,TN,"Private not-for-profit, 4-year or above",-88.858524,35.676896,Madison County,NA,Gulf South Conference,42065290
Vincennes University,IN,"Public, 4-year or above",-87.519939,38.687766,Knox County,NA,NA,42024096
Daytona State College,FL,"Public, 4-year or above",-81.051266,29.202286,Volusia County,NA,NA,41874666
SUNY College at Plattsburgh,NY,"Public, 4-year or above",-73.467342,44.691103,Clinton County,NA,State University of New York Ath Conf,41764173
Loyola University New Orleans,LA,"Private not-for-profit, 4-year or above",-90.120417,29.936141,Orleans Parish,NA,Southern States Athletic Conference,41719872
Mt San Antonio College,CA,"Public, 2-year",-117.8437,34.043786,Los Angeles County,NA,NA,41561126
