Recipient,State,UNITID,EIN,OPEID,IPED_ID,OPEID6,INST_TYPE,LONGITUDE,LATITUDE,COUNTY,Football,Basketball,INSTURL,grants_received,research_grants_received,contracts_received,subsidized18,unsubsidized18,parent18,grad_plus18,grants18,Undergrad,Grad,Total,Total_Federal_Investment,Total_Federal_Investment_Per_Student
A T Still University of Health Sciences,MO,177834,430356250,247700,NA,NA,"Private not-for-profit, 4-year or above",-92.589183,40.193648,Adair County,NA,NA,NA,1886781,382343,1467225.94,0,79009229,0,76413645,NA,NULL,3357,3357,159159223.9,47411.14803
Aaniiih Nakoda College,MT,180203,810420980,2517500,2517500,25175,"Public, 2-year",-108.757816,48.484196,Blaine County,NA,NA,www.ancollege.edu,4052195.08,2913653,0,NA,NA,NA,NA,432579.36,291,NULL,291,7398427.48,25424.14942
Abilene Christian University,TX,222178,750851900,353700,353700,3537,"Private not-for-profit, 4-year or above",-99.70954,32.46915,Taylor County,Southland Conference,Southland Conference,www.acu.edu,580437.2,297481,0,6650597,23215164,5653936,2853318,2111750,3650,784,4434,41362683.2,9328.525756
Abraham Baldwin Agricultural College,GA,138558,586002072,154100,154100,1541,"Public, 4-year or above",-83.528281,31.481889,Tift County,NA,NA,www.abac.edu,2122924.25,0,0,5101418,5934549,1025031,0,9037422.8,3458,NULL,3458,23221345.05,6715.253051
Academy for Five Element Acupuncture,FL,451079,650621012,4133500,NA,NA,"Private not-for-profit, 4-year or above",-82.321994,29.650075,Alachua County,NA,NA,NA,0,0,0,0,1031537,0,145913,NA,NULL,57,57,1177450,20657.01754
Academy for Jewish Religion-California,CA,457271,680493819,4155500,NA,NA,"Private not-for-profit, 4-year or above",-118.293261,34.06089,Los Angeles County,NA,NA,NA,0,0,0,0,235150,0,0,NA,NULL,64,64,235150,3674.21875
Academy for Nursing and Health Occupations,FL,412173,592757346,3346300,NA,NA,"Private not-for-profit, 2-year",-80.121497,26.70653,Palm Beach County,NA,NA,NA,0,0,0,1104155,1365763,95384,0,1456869.65,819,NULL,819,4022171.6,4911.076435
Academy of Chinese Culture and Health Sciences,CA,108269,942881684,3288300,NA,NA,"Private not-for-profit, 4-year or above",-122.272733,37.806662,Alameda County,NA,NA,NA,0,0,0,0,665059,0,381122,NA,NULL,136,136,1046181,7692.507353
Academy of Interactive Entertainment,LA,487658,272990527,4248400,NA,NA,"Private not-for-profit, less-than 2-year",-92.043361,30.22001,Lafayette Parish,NA,NA,NA,0,0,0,180841,176514,262664,0,213266.98,40,NULL,40,833286,20832.15
Academy of Interactive Entertainment,WA,482185,273792158,4223600,NA,NA,"Private not-for-profit, less-than 2-year",-122.351158,47.621224,King County,NA,NA,NA,0,0,0,273915,300603,357579,0,239340.1,76,NULL,76,1171437.1,15413.64605
Acupuncture and Integrative Medicine College-Berkeley,CA,384306,943111522,3327400,NA,NA,"Private not-for-profit, 4-year or above",-122.267636,37.862754,Alameda County,NA,NA,NA,0,0,0,0,1186149,0,206632,NA,NULL,105,105,1392781,13264.58095
Adams State University,CO,126182,846000542,134500,134500,1345,"Public, 4-year or above",-105.879642,37.473636,Alamosa County,Rocky Mountain Athletic Conference,Rocky Mountain Athletic Conference,www.adams.edu,3272026,6055,0,3262580,14254932,2108123,539177,4393221.98,2156,1294,3450,27836115,8068.43913
Adelphi University,NY,188429,111630741,266600,266600,2666,"Private not-for-profit, 4-year or above",-73.653321,40.721439,Nassau County,NA,Northeast 10 Conference,www.adelphi.edu/,1518903,81248,0,11595524,40042141,18379391,13660199,7081199,5071,2404,7475,92358605,12355.66622
Adirondack Community College,NY,188438,146013244,286000,286000,2860,"Public, 2-year",-73.655014,43.353441,Warren County,NA,NA,WWW.SUNYACC.EDU,644067,0,0,3281764,3726984,664055,0,5831830.96,4247,NULL,4247,14148701,3331.457735
Adler Graduate School,MN,374024,410970173,3051900,NA,NA,"Private not-for-profit, 4-year or above",-93.252532,44.862865,Hennepin County,NA,NA,NA,0,0,0,0,4036743,0,251339,NA,NULL,311,311,4288082,13788.04502
Adler University,IL,142832,362515281,2068100,NA,NA,"Private not-for-profit, 4-year or above",-87.629131,41.88253,Cook County,NA,NA,NA,283692,0,5655,0,19261900,0,16507002,NA,NULL,988,988,36058249,36496.20344
Adrian College,MI,168528,381357980,223400,223400,2234,"Private not-for-profit, 4-year or above",-84.059947,41.898449,Lenawee County,Michigan Intercollegiate Athletic Assoc,Michigan Intercollegiate Athletic Assoc,www.adrian.edu,313406,0,0,4613772,4641648,6411112,6008,2640548,1619,28,1647,18626494,11309.34669
Adult and Community Education-Hudson,OH,203030,316400416,812900,NA,NA,"Public, less-than 2-year",-82.980603,40.012851,Franklin County,NA,NA,NA,0,0,0,361827,554241,11334,0,616785,236,NULL,236,1544187,6543.165254
Adult and Continuing Education-BCTS,NJ,183983,226002432,2312000,NA,NA,"Public, less-than 2-year",-74.033997,40.901784,Bergen County,NA,NA,NA,0,0,0,77778,91827,32509,0,158810,121,NULL,121,360924,2982.842975
Adventist University of Health Sciences,FL,133872,593069793,3115500,3115500,31155,"Private not-for-profit, 4-year or above",-81.367687,28.576142,Orange County,NA,NA,www.adu.edu,61732,0,0,3864042,12030034,940353,7418716,2586837.77,1950,178,2128,26901714.8,12641.78327
Agnes Scott College,GA,138600,580566116,154200,NA,NA,"Private not-for-profit, 4-year or above",-84.295459,33.769268,Dekalb County,NA,USA South Athletic Conference,NA,0,-12231,0,1043182,885999,1980482,0,1845445,873,NULL,873,5742877,6578.32417
Aiken Technical College,SC,217615,570523399,1005600,1005600,10056,"Public, 2-year",-81.842423,33.533633,Aiken County,NA,NA,www.atc.edu,0,0,0,1026657,1442890,0,0,4657402.14,2353,NULL,2353,7126949.1,3028.877646
Aims Community College,CO,126207,840575852,758200,758200,7582,"Public, 2-year",-104.764335,40.409037,Weld County,NA,NA,www.aims.edu,379244.95,0,0,1396782,1196420,190932,0,5922579,5001,NULL,5001,9085957.95,1816.828224
Akron School of Practical Nursing,OH,200828,346000033,819400,NA,NA,"Public, less-than 2-year",-81.571862,41.09905,Summit County,NA,NA,NA,0,0,0,27705,69831,11970,0,89559,59,NULL,59,199065,3373.983051
Alabama A & M University,AL,100654,636001109,100200,100200,1002,"Public, 4-year or above",-86.568502,34.783368,Madison County,Southwestern Athletic Conference,Southwestern Athletic Conference,www.aamu.edu/,8904301,7666672.99,-24056.27,13381333,27516703,14715060,2043283,18074455.24,4210,1123,5333,92277751.92,17303.15993
Alabama College of Osteopathic Medicine,AL,483975,273339185,4226700,NA,NA,"Private not-for-profit, 4-year or above",-85.340805,31.206294,Houston County,NA,NA,NA,0,277277,516012,0,23492551,0,14673645,NA,NULL,460,460,38959485,84694.53261
Alabama State University,AL,100724,636001101,100500,100500,1005,"Public, 4-year or above",-86.295677,32.364317,Montgomery County,Southwestern Athletic Conference,Southwestern Athletic Conference,www.alasu.edu,8439722.94,1300886,0,9754957,16682864,9991479,1630320,12799825.76,4805,619,5424,60600054.74,11172.57646
Alamance Community College,NC,199786,566052379,546300,NA,NA,"Public, 2-year",-79.357657,36.066683,Alamance County,NA,NA,NA,0,0,0,NA,NA,NA,NA,6174440.08,4666,NULL,4666,6174440.1,1323.283348
Alamo Community College District Central Office,TX,NA,NA,NA,NA,NA,NA,NA,NA,NA,NA,NA,NA,5982162.81,568831,0,NA,NA,NA,NA,0,NA,NA,NA,6550993.81,NA
Alaska Bible College,AK,102580,943255546,884300,NA,NA,"Private not-for-profit, 4-year or above",-149.111972,61.598553,Matanuska-Susitna Borough,NA,NA,NA,0,0,0,22373,15000,5000,0,96422.68,49,NULL,49,138795.7,2832.565306
Alaska Christian College,AK,442523,920174205,4138600,NA,NA,"Private not-for-profit, 2-year",-151.136005,60.490459,Kenai Peninsula Borough,NA,NA,NA,0,0,0,120955,114314,0,0,467099,68,NULL,68,702368,10328.94118
Alaska Pacific University,AK,102669,920023588,106100,NA,NA,"Private not-for-profit, 4-year or above",-149.804242,61.191235,Anchorage Municipality,NA,NA,NA,-11452.4,209978,0,564020,1499298,195049,61515,568989,326,234,560,3087396.6,5513.208214
Albany BOCES-Adult Practical Nursing Program,NY,418038,146009582,2170200,NA,NA,"Public, less-than 2-year",-73.835752,42.745685,Albany County,NA,NA,NA,0,0,0,341440,703064,109475,0,638994.05,160,NULL,160,1792973.1,11206.08188
Albany College of Pharmacy and Health Sciences,NY,188526,141423161,288500,NA,NA,"Private not-for-profit, 4-year or above",-73.778132,42.652559,Albany County,NA,NA,NA,0,1971796,0,2611195,10263626,2372909,1222278,1108550,1084,478,1562,19550354,12516.23175
Albany Law School,NY,188535,141338309,288600,NA,NA,"Private not-for-profit, 4-year or above",-73.777692,42.651264,Albany County,NA,NA,NA,0,0,0,0,6340944,0,4140622,NA,NULL,414,414,10481566,25317.79227
Albany Medical College,NY,188580,141338310,288700,288700,2887,"Private not-for-profit, 4-year or above",-73.773975,42.653178,Albany County,NA,NA,www.amc.edu,2449137,9103397,334225.19,0,18933184,0,10797271,NA,NULL,822,822,41617214.19,50629.21434
Albany State University,GA,138716,586001996,154400,154400,1544,"Public, 4-year or above",-84.141825,31.56928,Dougherty County,Southern Intercollegiate Athletic Conf,Southern Intercollegiate Athletic Conf,www.asurams.edu/,8288507,618479,0,15346154,20121792,5561192,172908,18596251,3316,501,3817,68705283,17999.81216
Albany Technical College,GA,138682,581788487,560100,NA,NA,"Public, 2-year",-84.174284,31.55434,Dougherty County,NA,NA,NA,1624390,219204,0,4245294,2316632,0,0,11280116.81,3640,NULL,3640,19685636.8,5408.141978
Albertus Magnus College,CT,128498,60646520,137400,NA,NA,"Private not-for-profit, 4-year or above",-72.923848,41.332519,New Haven County,NA,Great Northeast Athletic Conference,NA,649280,0,0,4402789,10501998,830530,207900,3133794,1256,318,1574,19726291,12532.5864
Albion College,MI,168546,381359081,223500,223500,2235,"Private not-for-profit, 4-year or above",-84.746088,42.244603,Calhoun County,Michigan Intercollegiate Athletic Assoc,Michigan Intercollegiate Athletic Assoc,www.albion.edu,11000,89791,0,3857248,2939391,3477843,0,2896426,1268,NULL,1268,13271699,10466.63959
Albright College,PA,210571,231352615,322900,NA,NA,"Private not-for-profit, 4-year or above",-75.909742,40.361351,Berks County,Middle Atlantic States Athletic Corporation,Commonwealth Conference,NA,449638,0,0,6171296,5537048,5395635,0,4181534,2360,28,2388,21735151,9101.822027
Alcorn State University,MS,175342,646000013,239600,239600,2396,"Public, 4-year or above",-91.142854,31.877216,Claiborne County,Southwestern Athletic Conference,Southwestern Athletic Conference,www.alcorn.edu,6699769.73,1842808.09,-8718.77,9290412,16307512,4159421,2561733,12863535.55,3006,607,3613,53716472.65,14867.55401
Alderson Broaddus University,WV,237118,550357072,380600,380600,3806,"Private not-for-profit, 4-year or above",-80.047728,39.158067,Barbour County,Great Midwest Athletic Conference,Great Midwest Athletic Conference,www.ab.edu/,0,0,0,2246202,3358265,2047185,2145384,1899308.55,1038,69,1107,11696344.6,10565.80361
Alexandria Technical & Community College,MN,172918,411687754,554400,NA,NA,"Public, 2-year",-95.372369,45.873107,Douglas County,NA,NA,NA,0,0,0,1968217,2706223,141814,0,2358156,2604,NULL,2604,7174410,2755.14977
Alfred University,NY,188641,160743900,266800,266800,2668,"Private not-for-profit, 4-year or above",-77.788106,42.254476,Allegany County,Empire Eight,Empire Eight,www.alfred.edu,0,990821.55,6000,4658888,8848724,3169388,692668,3082066.5,1920,480,2400,21448556.05,8936.898354
Alice Lloyd College,KY,156189,610492351,195100,NA,NA,"Private not-for-profit, 4-year or above",-82.875068,37.335087,Knott County,NA,Kentucky Intercollegiate Ath Conf,NA,0,0,0,990317,683388,58738,0,1414523,657,NULL,657,3146966,4789.902588
Allan Hancock College,CA,108807,521692042,111100,111100,1111,"Public, 2-year",-120.421486,34.942979,NA,NA,NA,www.hancockcollege.edu/,839118.15,1800104,45823.12,452887,460158,0,0,8805696,11047,NULL,11047,12403786.27,1122.819432
Allegany College of Maryland,MD,161688,520846757,205700,205700,2057,"Public, 2-year",-78.729766,39.652658,Allegany County,NA,NA,www.allegany.edu,242136,0,0,2700052,3242952,443672,0,4588105.89,3227,NULL,3227,11216917.9,3475.958444
Allegheny College,PA,210669,250965212,323000,323000,3230,"Private not-for-profit, 4-year or above",-80.146922,41.648068,Crawford County,North Coast Athletic Conference,North Coast Athletic Conference,www.allegheny.edu,1490378.08,-64368,0,4582812,3494092,4150136,0,2723133,2023,NULL,2023,16376183.08,8094.999051
Allegheny Wesleyan College,OH,200873,341142457,3457300,NA,NA,"Private not-for-profit, 4-year or above",-80.860091,40.867236,Columbiana County,NA,NA,NA,0,0,0,11000,0,0,0,241499.5,62,NULL,62,252499.5,4072.572581
Allen College,IA,152798,421351526,3069100,3069100,30691,"Private not-for-profit, 4-year or above",-92.338018,42.531427,Black Hawk County,NA,NA,www.allencollege.edu,0,0,0,1079801,4789815,492274,460405,475446.97,379,241,620,7297742,11770.55161
Allen County Community College,KS,154642,480697480,190100,NA,NA,"Public, 2-year",-95.39681,37.937698,Allen County,NA,NA,NA,0,0,0,678753,614359,3000,0,1953281.02,2628,NULL,2628,3249393,1236.450913
Allen University,SC,217624,570341191,341700,341700,3417,"Private not-for-profit, 4-year or above",-81.020045,34.010348,Richland County,NA,Appalachian Athletic Conference,www.allenuniversity.edu/,2728998,0,0,2371928,2355041,892018,0,3049109.69,660,NULL,660,11397094.7,17268.3253
Alma College,MI,168591,381359083,223600,223600,2236,"Private not-for-profit, 4-year or above",-84.670073,43.379236,Gratiot County,Michigan Intercollegiate Athletic Assoc,Michigan Intercollegiate Athletic Assoc,alma.edu,0,0,0,3869837,3005121,4581081,0,1923057.43,1396,NULL,1396,13379096.4,9583.879943
Alpena Community College,MI,168607,382310748,223700,NA,NA,"Public, 4-year or above",-83.445069,45.081647,Alpena County,NA,NA,NA,485863.82,0,0,826146,874785,55650,0,2322167.41,1636,NULL,1636,4564612.22,2790.105269
Alvernia University,PA,210775,231522643,323300,323300,3233,"Private not-for-profit, 4-year or above",-75.936754,40.310028,Berks County,NA,Commonwealth Conference,www.alvernia.edu,848360,0,0,6308670,13170032,6284240,916380,3933918.95,2442,498,2940,31461601,10701.22483
Alverno College,WI,238193,390806263,383200,383200,3832,"Private not-for-profit, 4-year or above",-87.965498,42.983518,Milwaukee County,NA,Northern Athletics Collegiate Conference,www.alverno.edu,33906,974698,0,4079173,10977854,1786669,5000,3240105.57,1723,651,2374,21097405.6,8886.859983
Alvin Community College,TX,222567,741405330,353900,NA,NA,"Public, 2-year",-95.241078,29.396581,Brazoria County,NA,NA,NA,1169008,0,0,626767,345014,12006,0,3863178.97,4837,NULL,4837,6015974,1243.740748
Amarillo College,TX,222576,756000031,354000,NA,NA,"Public, 2-year",-101.847104,35.18841,Potter County,NA,NA,NA,1438869.89,0,0,4831323,7157212,79533,0,16379033.02,10336,NULL,10336,29885970.89,2891.444552
Amberton University,TX,222628,751786007,2259400,NA,NA,"Private not-for-profit, 4-year or above",-96.653028,32.859937,Dallas County,NA,NA,NA,0,0,0,NA,NA,NA,NA,75691.4,NA,NA,NA,75691.4,NA
American Academy McAllister Institute of Funeral Service,NY,188687,132590811,1081300,NA,NA,"Private not-for-profit, 2-year",-73.993782,40.769031,New York County,NA,NA,NA,0,0,0,1097685,930821,17500,0,738403.43,424,NULL,424,2784409.4,6567.003302
American Academy of Art,IL,142887,363778690,162800,NA,NA,"Private not-for-profit, 4-year or above",-87.624396,41.877824,Cook County,NA,NA,NA,0,0,0,501099,382812,1030464,0,874052,365,NULL,365,2788427,7639.526027
American Academy of Dramatic Arts-New York,NY,188678,130429660,746500,NA,NA,"Private not-for-profit, 2-year",-73.984843,40.745545,New York County,NA,NA,NA,0,0,0,991729,929869,3952806,0,801472,253,NULL,253,6675876,26386.86166
American Baptist College,TN,219505,620485724,1046000,NA,NA,"Private not-for-profit, 4-year or above",-86.789301,36.201155,Davidson County,NA,NA,NA,2352562,0,0,241987,373279,31282,0,347806.5,157,NULL,157,3346916.5,21317.93949
American Film Institute Conservatory,CA,108870,526072925,2222000,NA,NA,"Private not-for-profit, 4-year or above",-118.309989,34.10846,Los Angeles County,NA,NA,NA,20000,0,0,0,2313166,0,4463665,NA,NULL,328,328,6796831,20722.04573
American Indian OIC Inc,MN,172927,411365561,2514100,NA,NA,"Private not-for-profit, less-than 2-year",-93.246166,44.961993,Hennepin County,NA,NA,NA,250182,0,0,NA,NA,NA,NA,91169,252,NULL,252,341351,1354.56746
American International College,MA,164447,42103701,211400,211400,2114,"Private not-for-profit, 4-year or above",-72.558507,42.112708,Hampden County,Northeast 10 Conference,Northeast 10 Conference,www.aic.edu,254258,0,0,4213320,19774634,3596184,4666071,3659241,1473,2051,3524,36163708,10262.11918
American Jewish University,CA,116846,951684064,274100,NA,NA,"Private not-for-profit, 4-year or above",-118.471764,34.128099,Los Angeles County,NA,NA,NA,0,0,0,133832,1012324,74052,575933,192457.75,103,101,204,1988598.8,9748.033333
American River College,CA,109208,941576340,123200,NA,NA,"Public, 2-year",-121.346012,38.649734,Sacramento County,NA,NA,NA,3034723,0,0,3492442,4545860,0,0,26358515,29133,NULL,29133,37431540,1284.85017
American Samoa Community College,AS,240736,660516639,1001000,1001000,10010,"Public, 4-year or above",-170.742728,-14.322587,NA,NA,NA,www.amsamoa.edu,2325449.11,515686,0,NA,NA,NA,NA,4211718.75,1276,NULL,1276,7052853.91,5527.314976
American University,DC,131159,530196549,143400,143400,1434,"Private not-for-profit, 4-year or above",-77.090106,38.937802,District Of Columbia,NA,Patriot League,WWW.AMERICAN.EDU,6984616.28,6978413.22,3896660.02,13778683,73021734,26056372,47534501,5958418.38,7706,5289,12995,184209397.9,14175.40577
American University of Puerto Rico,PR,241100,660350945,1194100,1194100,11941,"Private not-for-profit, 4-year or above",-66.18678,18.406139,NA,NA,NA,www.aupr.edu,1866241.49,0,0,677369,340618,31850,0,5727622.53,749,60,809,8643700.99,10684.42644
Amherst College,MA,164465,42103542,211500,211500,2115,"Private not-for-profit, 4-year or above",-72.518493,42.372459,Hampshire County,New England Small College Ath Conf,New England Small College Ath Conf,www.amherst.edu,776702,1756672,0,930109,687797,2610147,0,2094055,1792,NULL,1792,8855482,4941.675223
Amridge University,AL,100690,237034324,2503400,NA,NA,"Private not-for-profit, 4-year or above",-86.17401,32.362609,Montgomery County,NA,NA,NA,0,0,0,1303175,7524255,65738,1821746,1109329.06,279,319,598,11824243.1,19772.98177
Ancilla College,IN,150048,356071917,178400,NA,NA,"Private not-for-profit, 2-year",-86.445263,41.337958,Marshall County,NA,NA,NA,0,0,0,969747,1118789,797365,0,1179750.38,400,NULL,400,4065651.4,10164.1285
Anderson University,IN,150066,350867954,178500,178500,1785,"Private not-for-profit, 4-year or above",-85.662292,40.112167,Madison County,Heartland Collegiate Athletic Conference,Heartland Collegiate Athletic Conference,www.anderson.edu,0,0,0,4036932,5282806,3928657,10248,2421233,1976,418,2394,15679876,6549.655806
Anderson University,SC,217633,570324906,341800,NA,NA,"Private not-for-profit, 4-year or above",-82.640205,34.515506,Anderson County,NA,South Atlantic Conference,NA,0,0,0,5477482,11904898,4555803,0,3503197,2775,386,3161,25441380,8048.522619
Andover Newton Theological School,MA,164474,42104775,211600,NA,NA,"Private not-for-profit, 4-year or above",-71.188943,42.324852,Middlesex County,NA,NA,NA,0,0,0,0,272525,0,17500,NA,NULL,234,234,290025,1239.423077
Andrew College,GA,138761,580568687,154500,154500,1545,"Private not-for-profit, 2-year",-84.795021,31.772321,Randolph County,NA,NA,www.andrewcollege.edu,528024,0,0,565895,591909,516672,0,724213.44,303,NULL,303,2926713.4,9659.120132
Andrews University,MI,168740,381627600,223800,NA,NA,"Private not-for-profit, 4-year or above",-86.355815,41.963859,Berrien County,NA,NA,NA,0,261218,0,2567632,15059959,4059653,4091899,1980394.5,1926,1633,3559,28020755.5,7873.210312
Angelina College,TX,222822,751244347,666100,NA,NA,"Public, 2-year",-94.731625,31.287444,Angelina County,NA,NA,NA,114935,0,0,NA,NA,NA,NA,4577547,5148,NULL,5148,4692482,911.51554
Angelo State University,TX,222831,756002403,354100,354100,3541,"Public, 4-year or above",-100.466495,31.44145,Tom Green County,Lone Star Conference,Lone Star Conference,www.angelo.edu,1224047.3,0,0,9436629,20752755,5329643,87955,13248766.81,5425,1306,6731,50079796.1,7440.171758
Anna Maria College,MA,164492,42002060,211700,NA,NA,"Private not-for-profit, 4-year or above",-71.918961,42.33055,Worcester County,Eastern Collegiate Football Conference,Great Northeast Athletic Conference,NA,0,0,0,3128198,4354684,3135462,42927,1970301.76,1107,323,1430,12631572.8,8833.267692
Anne Arundel Community College,MD,161767,520905706,205800,NA,NA,"Public, 2-year",-76.512223,39.049813,Anne Arundel County,NA,NA,NA,398706,250000,0,3044124,3244380,8500,0,9666618.23,15274,NULL,15274,16612328.2,1087.62133
Annenberg School of Nursing,CA,475705,208449705,4191300,NA,NA,"Private not-for-profit, less-than 2-year",-118.553851,34.200825,Los Angeles County,NA,NA,NA,0,0,0,48490,54106,0,0,65083.19,41,NULL,41,167679.2,4089.736585
Anoka Technical College,MN,172954,411687554,735000,NA,NA,"Public, 2-year",-93.415955,45.216331,Anoka County,NA,NA,NA,0,0,0,1987585,3476081,43851,0,2542576,2221,NULL,2221,8050093,3624.535344
Anoka-Ramsey Community College,MN,172963,411687554,233200,233200,2332,"Public, 2-year",-93.351697,45.172978,Anoka County,NA,NA,www.anokaramsey.edu,1785782,0,0,5869812,8002729,70090,0,8120678,7877,NULL,7877,23849091,3027.687064
Antelope Valley College,CA,109350,952228663,111300,111300,1113,"Public, 4-year or above",-118.186166,34.676207,Los Angeles County,NA,NA,www.avc.edu,1521044.63,0,0,5601707,2723900,5686,0,25158859.14,14578,NULL,14578,35011196.73,2401.646092
Antioch College,OH,483018,261672457,4244300,NA,NA,"Private not-for-profit, 4-year or above",-83.888077,39.799806,Greene County,NA,NA,NA,0,0,0,257073,189575,135065,0,469594,238,NULL,238,1051307,4417.256303
Antioch University,OH,245892,310536640,301000,NA,NA,"Private not-for-profit, 4-year or above",-83.908684,39.80321,Greene County,NA,NA,NA,0,0,0,1584200,42489880,43622,12765535,1059193.68,81,129,210,57942430.7,275916.3367
Apex School of Theology,NC,441511,562031568,3513400,NA,NA,"Private not-for-profit, 4-year or above",-78.841041,35.92318,Durham County,NA,NA,NA,0,0,0,1655709,3943494,0,0,1899098.66,596,180,776,7498301.7,9662.759923
Apollo Career Center,OH,201034,341126813,2562300,NA,NA,"Public, less-than 2-year",-84.14971,40.69222,Allen County,NA,NA,NA,0,0,0,297439,446082,0,0,607708.5,1267,NULL,1267,1351229.5,1066.479479
Appalachian Bible College,WV,237136,550370901,754400,NA,NA,"Private not-for-profit, 4-year or above",-81.20115,37.853339,Raleigh County,NA,NA,NA,0,0,0,196603,81141,34988,0,510112,295,NULL,295,822844,2789.301695
Appalachian College of Pharmacy,VA,449922,260069167,4180600,NA,NA,"Private not-for-profit, 4-year or above",-82.005227,37.211496,Buchanan County,NA,NA,NA,0,0,0,0,8062483,0,1680836,NA,NULL,202,202,9743319,48234.25248
Appalachian School of Law,VA,432348,541743079,3559300,NA,NA,"Private not-for-profit, 4-year or above",-82.096426,37.278007,Buchanan County,NA,NA,NA,0,0,0,0,2615949,0,3021498,NA,NULL,109,109,5637447,51719.69725
Appalachian State University,NC,197869,561176030,290600,290600,2906,"Public, 4-year or above",-81.680234,36.214844,Watauga County,Sun Belt Conference,Sun Belt Conference,www.appstate.edu/,7721985.28,1922506.78,37000,27424167,36503779,29339654,402862,23247431,16255,1642,17897,126599385.1,7073.776893
Applied Technology Services,MO,417716,436015057,3068600,NA,NA,"Public, less-than 2-year",-90.413236,38.542285,St. Louis County,NA,NA,NA,0,0,0,394183,683780,65600,0,853096.81,231,NULL,231,1996659.8,8643.548918
Aquinas College,MI,168786,381367080,223900,223900,2239,"Private not-for-profit, 4-year or above",-85.626166,42.960449,Kent County,NA,Wolverine-Hoosier Athletic Conference,www.aquinas.edu,812403,0,0,2983532,2803051,1590614,0,2025744.45,1789,109,1898,10215344.4,5382.162487
Arapahoe Community College,CO,126289,840704120,134600,134600,1346,"Public, 2-year",-105.018631,39.607505,Arapahoe County,NA,NA,www.arapahoe.edu,-959.19,0,0,4352544,6456263,43676,0,5564264,10401,NULL,10401,16415787.81,1578.289377
Arcadia University,PA,211088,231352620,323500,NA,NA,"Private not-for-profit, 4-year or above",-75.165205,40.091941,Montgomery County,NA,Middle Atlantic States Athletic Corporation,NA,300000,352500,0,5669814,12869679,5283006,5108530,2982808.5,2594,1344,3938,32566337.5,8269.765744
Aria Health School of Nursing,PA,212568,230596940,972300,NA,NA,"Private not-for-profit, 2-year",-74.978275,40.125175,Bucks County,NA,NA,NA,0,0,0,450541,658706,145733,0,256306,217,NULL,217,1511286,6964.451613
Arizona Christian University,AZ,105899,860186050,711300,NA,NA,"Private not-for-profit, 4-year or above",-112.026211,33.595117,Maricopa County,Central States Football League,Golden State Athletic Conference,NA,0,0,0,1504857,1611930,1187691,0,1348283,737,NULL,737,5652761,7669.960651
Arizona State University-Tempe,AZ,104151,860196696,108100,108100,1081,"Public, 4-year or above",-111.934629,33.422247,Maricopa County,Pacific-12 Conference,Pacific-12 Conference,www.asu.edu/,52512215.36,156755162.4,18973375.17,148758152,306779314,119727414,81473143,147544695.4,39961,10156,50117,1032523471,20602.26014
Arizona Western College,AZ,104160,860179321,107100,107100,1071,"Public, 2-year",-114.495968,32.689306,Yuma County,NA,NA,www.azwestern.edu,2476597.79,0,0,384501,232176,163288,0,13226522.63,7702,NULL,7702,16483085.39,2140.104569
Arkansas Baptist College,AR,106306,710298658,108700,108700,1087,"Private not-for-profit, 4-year or above",-92.290555,34.734751,Pulaski County,NA,NA,www.arkansasbaptist.edu,2309826,0,0,774374,1045436,192594,0,1467971.65,899,NULL,899,5790201.6,6440.713682
Arkansas Colleges of Health Education,AR,488527,465138928,NA,NA,NA,"Private not-for-profit, 4-year or above",-94.319084,35.317421,Sebastian County,NA,NA,NA,0,323628,0,NA,NA,NA,NA,0,NA,NA,NA,323628,NA
Arkansas Northeastern College,AR,107327,710460696,1286000,NA,NA,"Public, 2-year",-89.921005,35.898597,Mississippi County,NA,NA,NA,1219270,0,0,NA,NA,NA,NA,2161528.25,1425,NULL,1425,3380798.2,2372.489965
Arkansas State University Mid-South,AR,107318,710533838,2348200,2348200,23482,"Public, 2-year",-90.22285,35.145736,Crittenden County,NA,NA,www.midsouthcc.edu,1146765.59,0,0,NA,NA,NA,NA,2509185.75,1895,NULL,1895,3655951.39,1929.261947
Arkansas State University-Beebe,AR,106449,710421333,109100,109100,1091,"Public, 2-year",-91.896165,35.074512,White County,NA,NA,www.asub.edu,1241246,0,0,1500923,1439379,22450,0,5647893.44,4140,NULL,4140,9851891.4,2379.683913
Arkansas State University-Main Campus,AR,106458,716000556,109000,109000,1090,"Public, 4-year or above",-90.680478,35.842779,Craighead County,Sun Belt Conference,Sun Belt Conference,www2.astate.edu,2113457,714635.19,36461,15983138,67338438,4327682,3033449,20082420,9857,3818,13675,113629680.2,8309.300197
Arkansas State University-Mountain Home,AR,420538,621687591,4254400,NA,NA,"Public, 2-year",-92.388581,36.320466,Baxter County,NA,NA,NA,0,0,0,886400,1157326,0,0,3249881,NA,NA,NA,5293607,NA
Arkansas State University-Newport,AR,440402,710855933,4203400,NA,NA,"Public, 2-year",-91.188846,35.638722,Jackson County,NA,NA,NA,0,0,0,953284,1364783,26084,0,4408016.27,2477,NULL,2477,6752167.3,2725.94562
Arkansas Tech University,AR,106467,716014834,108900,108900,1089,"Public, 4-year or above",-93.13562,35.293237,Pope County,Great American Conference,Great American Conference,www.atu.edu,1387504.55,0,0,13561232,21427586,2966632,158874,19070572.5,11099,863,11962,58572401.05,4896.539128
Arlington Baptist College,TX,222877,750983821,2081400,NA,NA,"Private not-for-profit, 4-year or above",-97.155661,32.739543,Tarrant County,NA,NA,NA,0,0,0,435105,690132,254458,0,403081.29,233,18,251,1782776.3,7102.694422
Arnot Ogden Medical Center,NY,188915,160743905,643500,NA,NA,"Private not-for-profit, 2-year",-76.828353,42.10099,Chemung County,NA,NA,NA,0,0,0,158715,239666,2000,0,144034.5,71,NULL,71,544415.5,7667.823944
Art Academy of Cincinnati,OH,201061,311601569,301100,NA,NA,"Private not-for-profit, 4-year or above",-84.513913,39.108805,Hamilton County,NA,NA,NA,0,0,0,778411,768165,1566577,0,594702,206,7,213,3707855,17407.76995
Art Center College of Design,CA,109651,951921340,111600,NA,NA,"Private not-for-profit, 4-year or above",-118.186901,34.170844,Los Angeles County,NA,NA,NA,30000,0,0,4439988,5037863,6748563,1328587,3782243.4,1824,218,2042,21367244.4,10463.88071
Asbury Theological Seminary,KY,156222,610445823,195300,NA,NA,"Private not-for-profit, 4-year or above",-84.661862,37.863704,Jessamine County,NA,NA,NA,0,0,0,0,6044421,0,186451,NA,NULL,1540,1540,6230872,4046.020779
Asbury University,KY,156213,610458355,195200,NA,NA,"Private not-for-profit, 4-year or above",-84.662606,37.862029,Jessamine County,NA,Kentucky Intercollegiate Ath Conf,NA,0,0,0,3424219,4713762,1781085,39212,2190768,1646,241,1887,12149046,6438.286169
Asheville-Buncombe Technical Community College,NC,197887,560792170,403300,403300,4033,"Public, 2-year",-82.555838,35.571055,Buncombe County,NA,NA,www.abtech.edu,0,331650,0,2253765,3269256,51264,0,8030213.27,7507,NULL,7507,13936148.3,1856.420448
Ashland Community and Technical College,KY,156231,611320380,199000,199000,1990,"Public, 2-year",-82.650664,38.469201,Boyd County,NA,NA,www.ashland.kctcs.edu/,1355207,0,0,2748716,2322979,4250,0,6567207,3345,NULL,3345,12998359,3885.907025
Ashland University,OH,201104,340714626,301200,301200,3012,"Private not-for-profit, 4-year or above",-82.320621,40.860987,Ashland County,Great Lakes Intercollegiate Ath Conf,Great Lakes Intercollegiate Ath Conf,https://www.ashland.edu,279313,581369.17,0,7231368,18994945,4678689,488118,12689797.71,3746,1961,5707,44943599.87,7875.17082
Ashtabula County Technical and Career Campus,OH,201131,340970014,2187900,NA,NA,"Public, less-than 2-year",-80.73451,41.745865,Ashtabula County,NA,NA,NA,49544,0,0,217803,326277,5418,0,369026.96,166,NULL,166,968069,5831.740964
Asnuntuck Community College,CT,128577,66000798,1115000,1115000,11150,"Public, 2-year",-72.570177,41.998409,Hartford County,NA,NA,www.Asnuntuck.edu,749510,0,0,781436,1198605,0,0,3281658.34,1603,NULL,1603,6011209.3,3749.97461
Assabet Valley Regional Technical School,MA,164535,42444973,2169900,NA,NA,"Public, less-than 2-year",-71.565261,42.36834,Middlesex County,NA,NA,NA,0,0,0,94500,199192,15653,0,125082,46,NULL,46,434427,9444.065217
Associated Beth Rivkah Schools,NY,188942,112163504,2506000,NA,NA,"Private not-for-profit, 2-year",-73.950087,40.666388,Kings County,NA,NA,NA,0,0,0,NA,NA,NA,NA,523710,147,NULL,147,523710,3562.653061
Assumption College,MA,164562,42105776,211800,211800,2118,"Private not-for-profit, 4-year or above",-71.828387,42.295435,Worcester County,Northeast 10 Conference,Northeast 10 Conference,www.assumption.edu,200000,0,0,4323530,7367307,4095370,47517,907649.67,2225,446,2671,16941373.7,6342.708237
Athens State University,AL,100812,630701340,100800,NA,NA,"Public, 4-year or above",-86.96514,34.805625,Limestone County,NA,NA,NA,0,0,0,5970658,8535906,272816,0,5733950.48,3128,NULL,3128,20513330.5,6557.970109
Athens Technical College,GA,246813,581722080,560000,560000,5600,"Public, 2-year",-83.339598,33.990183,Clarke County,NA,NA,www.athenstech.edu/,0,0,0,NA,NA,NA,NA,7453428.03,4336,NULL,4336,7453428,1718.964022
Atlanta Metropolitan State College,GA,138901,581190222,1216500,NA,NA,"Public, 4-year or above",-84.404659,33.70893,Fulton County,NA,NA,NA,2096020.37,0,0,1847567,1368666,87317,0,6406273.45,3033,NULL,3033,11805843.87,3892.464184
Atlanta Technical College,GA,138840,586000134,854300,NA,NA,"Public, 2-year",-84.404995,33.712009,Fulton County,NA,NA,NA,-115174.97,0,0,4914168,4893675,0,0,11750370.85,4282,NULL,4282,21443038.83,5007.715747
Atlantic Cape Community College,NJ,183655,237368159,259600,NA,NA,"Public, 2-year",-74.680019,39.462081,Atlantic County,NA,NA,NA,259536.89,224761,0,2437770,1898571,252612,0,11833324.66,6845,NULL,6845,16906575.59,2469.916083
Atlantic Institute of Oriental Medicine,FL,439446,650512087,3429600,NA,NA,"Private not-for-profit, 4-year or above",-80.142235,26.121964,Broward County,NA,NA,NA,0,0,0,22000,1950581,0,919276,NA,23,123,146,2891857,19807.23973
Atlantic Technical College,FL,132374,596000530,1226300,NA,NA,"Public, 2-year",-80.192271,26.24278,Broward County,NA,NA,NA,0,0,0,NA,NA,NA,NA,1590032,3561,NULL,3561,1590032,446.5127773
Auburn Career Center,OH,201159,50926564,3051400,NA,NA,"Public, less-than 2-year",-81.243798,41.649238,Lake County,NA,NA,NA,40468,0,0,169047,268965,8550,0,300489.08,224,NULL,224,787519.1,3515.710268
Auburn University,AL,100858,636000724,100900,100900,1009,"Public, 4-year or above",-85.482782,32.604685,Lee County,Southeastern Conference,Southeastern Conference,www.auburn.edu,10915560.05,30787400.74,4700819.64,26198680,69782022,44494994,10077101,17511580.1,20629,5501,26130,214468157.5,8207.736607
Auburn University at Montgomery,AL,100830,636000724,831000,831000,8310,"Public, 4-year or above",-86.177351,32.369939,Montgomery County,NA,Independent Southeast Region,www.aum.edu,0,219877,36900,9290533,13830638,2386524,219126,10170489,4377,662,5039,36154087,7174.853542
Augsburg College,MN,173045,410694721,233400,233400,2334,"Private not-for-profit, 4-year or above",-93.241418,44.965636,Hennepin County,Minnesota Intercollegiate Ath Conf,Minnesota Intercollegiate Ath Conf,www.augsburg.edu,272494,991211,0,6035809,14805223,3402200,2027021,5127006.47,2619,984,3603,32660964.5,9064.936026
Augusta Technical College,GA,138956,581723458,559900,NA,NA,"Public, 2-year",-82.048439,33.418992,Richmond County,NA,NA,NA,591493,0,0,NA,NA,NA,NA,11805724.73,4269,NULL,4269,12397217.7,2904.009768
Augusta University,GA,482149,586002053,157900,157900,1579,"Public, 4-year or above",-81.988361,33.47145,Richmond County,NA,Peach Belt Conference,www.augusta.edu,11189440,40938407,4539315.45,9723456,65623844,3639335,18094874,10277146.49,5224,3357,8581,164025818,19115.00034
Augustana College,IL,143084,362166962,163300,163300,1633,"Private not-for-profit, 4-year or above",-90.552402,41.500326,NA,NA,NA,www.augustana.edu,0,241819,0,6218227,5515338,6067062,0,2646372,2497,NULL,2497,20688818,8285.469764
Augustana University,SD,219000,460224588,345800,345800,3458,"Private not-for-profit, 4-year or above",-96.738507,43.525939,Minnehaha County,Northern Sun Intercollegiate Conference,Northern Sun Intercollegiate Conference,www.augie.edu,296065,110948,0,3421646,4803483,1091208,110111,1594601,1671,224,1895,11428062,6030.639578
Aultman College of Nursing and Health Sciences,OH,201177,340714538,648700,NA,NA,"Private not-for-profit, 4-year or above",-81.404182,40.796865,Stark County,NA,NA,NA,0,0,0,592831,877503,361027,0,550343,358,NULL,358,2381704,6652.804469
Aurora University,IL,143118,362166964,163400,163400,1634,"Private not-for-profit, 4-year or above",-88.349469,41.754465,Kane County,Northern Athletics Collegiate Conference,Northern Athletics Collegiate Conference,aurora.edu,-52693.72,0,0,10207175,31944696,4180224,799440,8092894.74,3383,1843,5226,55171735.98,10557.16341
Austin College,TX,222983,750827409,354300,354300,3543,"Private not-for-profit, 4-year or above",-96.598772,33.646307,Grayson County,Southern Collegiate Athletic Conference,Southern Collegiate Athletic Conference,www.austincollege.edu,1302048,6900,60246,2205400,2304825,2825835,7250,1929313,1278,17,1295,10641817,8217.619305
Austin Graduate School of Theology,TX,247825,510174094,2362800,NA,NA,"Private not-for-profit, 4-year or above",-97.711706,30.343788,Travis County,NA,NA,NA,0,0,0,41637,85264,0,0,26880,17,22,39,153781,3943.102564
Austin Peay State University,TN,219602,620646576,347800,347800,3478,"Public, 4-year or above",-87.354081,36.533319,Montgomery County,Ohio Valley Conference,Ohio Valley Conference,www.apsu.edu,1320378.11,0,3000,17699966,24443332,5448421,282183,22369165.65,9246,915,10161,71566445.71,7043.248274
Austin Presbyterian Theological Seminary,TX,223001,741143056,354400,NA,NA,"Private not-for-profit, 4-year or above",-97.737752,30.292635,Travis County,NA,NA,NA,0,0,0,0,319658,0,0,NA,NULL,159,159,319658,2010.427673
Autry Technology Center,OK,365213,730933656,834300,NA,NA,"Public, 2-year",-97.89719,36.419122,Garfield County,NA,NA,NA,0,0,0,NA,NA,NA,NA,353420.4,633,NULL,633,353420.4,558.3260664
Ave Maria School of Law,FL,442295,383519708,3691400,NA,NA,"Private not-for-profit, 4-year or above",-81.731045,26.24209,Collier County,NA,NA,NA,0,0,0,0,3828766,0,5781977,NA,NULL,269,269,9610743,35727.66914
Ave Maria University,FL,446048,30482006,3941300,NA,NA,"Private not-for-profit, 4-year or above",-81.441082,26.33711,Collier County,Florida Sun Conference,Florida Sun Conference,NA,0,0,0,1511121,1842834,1237147,6132,1133427,1028,40,1068,5730661,5365.787453
Avera McKennan Hospital School of Radiologic Technology,SD,219170,146022474,492900,NA,NA,"Private not-for-profit, 2-year",-96.715584,43.533972,Minnehaha County,NA,NA,NA,0,0,0,0,2750,7500,0,NA,20,NULL,20,10250,512.5
Averett University,VA,231420,540129860,370200,NA,NA,"Private not-for-profit, 4-year or above",-79.413214,36.577273,Danville City,USA South Athletic Conference,USA South Athletic Conference,NA,0,0,0,3265820,6263871,4406262,6000,2431331.66,852,4,856,16373284.7,19127.66904
Avila University,MO,176628,440617326,244900,244900,2449,"Private not-for-profit, 4-year or above",-94.591387,38.912159,Jackson County,Heart of America Athletic Conference,Heart of America Athletic Conference,www.Avila.edu,1567194,0,0,3466849,7071641,1353441,0,2508127,1407,462,1869,15967252,8543.205993
AVTEC-Alaska's Institute of Technology,AK,102711,926001185,3160300,NA,NA,"Public, less-than 2-year",-149.444573,60.110727,Kenai Peninsula Borough,NA,NA,NA,0,0,0,60442,115093,16862,0,340106,1667,NULL,1667,532503,319.4379124
Azusa Pacific University,CA,109785,951744369,111700,111700,1117,"Private not-for-profit, 4-year or above",-117.88795,34.130865,Los Angeles County,Great Northeast Athletic Conference,Pacific West Conference,www.apu.edu,2758341,46000,0,21003053,82300006,16992693,27049384,15193539.25,5918,4092,10010,165343016.2,16517.78384
B M Spurr School of Practical Nursing,WV,237145,550357045,1235900,NA,NA,"Private not-for-profit, less-than 2-year",-80.753173,39.946228,Marshall County,NA,NA,NA,0,0,0,NA,NA,NA,NA,71443,32,NULL,32,71443,2232.59375
Bacone College,OK,206817,730590036,314700,314700,3147,"Private not-for-profit, 4-year or above",-95.335337,35.77707,Muskogee County,Central States Football League,Sooner Athletic Conference,www.bacone.edu,309836,0,0,2173159,2259634,2826436,0,2414381.11,968,NULL,968,9983446.1,10313.47738
Bais HaMedrash and Mesivta of Baltimore,MD,476601,521980774,4188400,NA,NA,"Private not-for-profit, 4-year or above",-76.674414,39.379528,Baltimore County,NA,NA,NA,0,0,0,NA,NA,NA,NA,227570,59,NULL,59,227570,3857.118644
Bais Medrash Elyon,NY,245777,133728890,2622900,NA,NA,"Private not-for-profit, 4-year or above",-74.069798,41.114079,Rockland County,NA,NA,NA,0,0,0,NA,NA,NA,NA,132578,68,34,102,132578,1299.784314
Bais Medrash Toras Chesed,NJ,449658,226830873,4081300,NA,NA,"Private not-for-profit, 4-year or above",-74.21127,40.099704,Ocean County,NA,NA,NA,0,0,0,NA,NA,NA,NA,225792.95,111,NULL,111,225793,2034.171171
Baker College,MI,168847,380321740,467300,NA,NA,"Private not-for-profit, 4-year or above",-83.694679,42.974764,Genesee County,NA,NA,NA,-148784.47,0,0,23333820,33230555,2714574,405056,21303391,27101,578,27679,80838611.53,2920.575582
Baker University,KS,154688,480543766,190300,190300,1903,"Private not-for-profit, 4-year or above",-95.188231,38.777278,Douglas County,Heart of America Athletic Conference,Heart of America Athletic Conference,www.bakeru.edu,0,0,0,3202244,11077639,1557198,80350,2149030,1848,970,2818,18066461,6411.093329
Bakersfield College,CA,109819,956006644,111800,NA,NA,"Public, 4-year or above",-118.973491,35.4108,Kern County,NA,NA,NA,1218049.15,0,0,1304056,1388815,13370,0,33210278.83,18698,NULL,18698,37134568.95,1986.018235
Bakke Graduate University,TX,420705,911485907,3110800,NA,NA,"Private not-for-profit, 4-year or above",-96.753881,32.89442,Dallas County,NA,NA,NA,0,0,0,0,182737,0,6366,NA,NULL,174,174,189103,1086.798851
Baldwin Wallace University,OH,201195,340714629,301400,301400,3014,"Private not-for-profit, 4-year or above",-81.849112,41.373938,Cuyahoga County,Ohio Athletic Conference,Ohio Athletic Conference,www.bw.edu,515103,-58094,0,8557427,11718070,9254869,1795113,5175477,3362,627,3989,36957965,9264.969917
Ball State University,IN,150136,356000221,178600,178600,1786,"Public, 4-year or above",-85.408863,40.198942,Delaware County,Mid-American Conference,Mid-American Conference,www.bsu.edu,1864127.35,1175276.49,0,30824315,77155089,21762252,2937866,24407364.42,16415,4594,21009,160126290.2,7621.794956
Baltimore City Community College,MD,161864,526002033,206100,206100,2061,"Public, 2-year",-76.662878,39.319978,Baltimore City,NA,NA,www.bccc.edu,833457.5,0,0,NA,NA,NA,NA,7563316.12,5269,NULL,5269,8396773.6,1593.618068
Bank Street College of Education,NY,189015,135562167,266900,266900,2669,"Private not-for-profit, 4-year or above",-73.966643,40.805604,New York County,NA,NA,www.bankstreet.edu,950194,0,0,0,2050119,0,186440,5596,NULL,650,650,3192349,4911.306154
Baptist Bible College,MO,176664,440567840,1320800,NA,NA,"Private not-for-profit, 4-year or above",-93.285385,37.239731,Greene County,NA,NA,NA,0,0,0,706623,675413,304023,0,709097.24,317,53,370,2395156.2,6473.395135
Baptist Memorial College of Health Sciences,TN,219639,621599670,3440300,NA,NA,"Private not-for-profit, 4-year or above",-90.027501,35.138415,Shelby County,NA,NA,NA,0,0,0,3622398,4730169,1166612,0,2571151.47,1170,NULL,1170,12090330.5,10333.61581
Baptist Missionary Association Theological Seminary,TX,223117,750959996,2331200,NA,NA,"Private not-for-profit, 4-year or above",-95.255524,31.978961,Cherokee County,NA,NA,NA,0,0,0,20250,150920,0,0,51584.5,58,68,126,222754.5,1767.892857
Baptist Theological Seminary at Richmond,VA,366793,541510076,3116900,NA,NA,"Private not-for-profit, 4-year or above",-77.468483,37.632354,Henrico County,NA,NA,NA,0,0,0,0,180530,0,1369,NA,NULL,70,70,181899,2598.557143
Baptist University of the Americas,TX,444398,742599785,3733300,NA,NA,"Private not-for-profit, 4-year or above",-98.546081,29.34998,Bexar County,NA,NA,NA,0,0,0,45065,26080,0,0,272071.5,174,NULL,174,343216.5,1972.508621
Barclay College,KS,155070,480554341,191700,NA,NA,"Private not-for-profit, 4-year or above",-99.104027,37.620691,Kiowa County,NA,NA,NA,0,0,0,479165,508143,56620,0,545875.23,227,37,264,1589803.2,6021.981818
Bard College,NY,189088,141713034,267100,267100,2671,"Private not-for-profit, 4-year or above",-73.906243,42.021803,Dutchess County,NA,Upstate Collegiate Athletic Association,www.bard.edu,802679,435610,0,3541751,5865654,3228025,1381726,2469551.43,2112,290,2402,17724996.4,7379.265779
Bard College at Simon's Rock,MA,167792,141713034,964500,NA,NA,"Private not-for-profit, 4-year or above",-73.380008,42.209241,Berkshire County,NA,NA,NA,0,24000,0,738103,593412,1099529,0,544891.92,323,NULL,323,2999935.9,9287.727245
Barnard College,NY,189097,131628149,270800,270800,2708,"Private not-for-profit, 4-year or above",-73.964027,40.809137,New York County,NA,Ivy Group,www.barnard.edu,648615,6216105,0,3216649,682517,5447133,0,2053594,2573,NULL,2573,18264613,7098.567042
Barnes-Jewish College Goldfarb School of Nursing,MO,177719,430652644,638900,NA,NA,"Private not-for-profit, 4-year or above",-90.260648,38.636881,St. Louis City,NA,NA,NA,0,0,0,2704311,4028635,1072529,284758,984288,592,89,681,9074521,13325.28781
Barry University,FL,132471,590624364,146600,146600,1466,"Private not-for-profit, 4-year or above",-80.196136,25.878865,Miami-Dade County,NA,Sunshine State Conference,www.barry.edu,2544760,-147,0,8022064,74096380,2862971,34799236,7950115.69,3996,4195,8191,130275379.7,15904.6978
Barstow Community College,CA,109907,956006415,111900,NA,NA,"Public, 2-year",-117.02523,34.871451,San Bernardino County,NA,NA,NA,0,0,0,NA,NA,NA,NA,8858694.36,3477,NULL,3477,8858694.4,2547.798217
Barton College,NC,197911,560529933,290800,NA,NA,"Private not-for-profit, 4-year or above",-77.913805,35.735463,Wilson County,NA,Conference Carolinas,NA,0,0,0,2791483,3373053,2971348,34697,2020437,1010,62,1072,11191018,10439.38246
Barton County Community College,KS,154697,480720175,460800,460800,4608,"Public, 2-year",-98.731697,38.40331,Barton County,NA,NA,www.bartonccc.edu,1268357,0,-76309.2,1236467,1470968,26114,0,2799112,5339,NULL,5339,6724708.8,1259.544634
Bastyr University,WA,235547,911036794,2242500,NA,NA,"Private not-for-profit, 4-year or above",-122.251708,47.729935,King County,NA,NA,NA,0,0,0,555986,28343265,145919,18900262,334520,279,1017,1296,48279952,37253.04938
Bates College,ME,160977,10211781,203600,203600,2036,"Private not-for-profit, 4-year or above",-70.203333,44.105299,NA,NA,NA,www.bates.edu/,39248.08,1526194,0,981270,1015756,2826837,0,901030,1773,NULL,1773,7290335.08,4111.864117
Bates Technical College,WA,235671,911526457,530600,NA,NA,"Public, 2-year",-122.446412,47.251531,Pierce County,NA,NA,NA,0,0,0,490099,754976,26890,0,3546078.47,2907,NULL,2907,4818043.5,1657.393705
Baton Rouge Community College,LA,437103,721334786,3730300,3730300,37303,"Public, 2-year",-91.137935,30.448276,East Baton Rouge Parish,NA,NA,www.mybrcc.edu,35540861.88,0,0,8464694,10130946,274100,0,17639679.78,7741,NULL,7741,72050281.68,9307.619388
Baton Rouge General Medical Center-School of Nursing,LA,158325,721025017,2335700,NA,NA,"Private not-for-profit, 2-year",-91.152773,30.449731,East Baton Rouge Parish,NA,NA,NA,0,0,0,185048,382488,6812,0,202639,69,NULL,69,776987,11260.68116
Bay de Noc Community College,MI,168883,381711021,224000,NA,NA,"Public, 2-year",-87.080708,45.769714,Delta County,NA,NA,NA,103852.77,0,0,1508071,1594490,13211,0,2688693,2019,NULL,2019,5908317.77,2926.358479
Bay Mills Community College,MI,380359,382604866,3066600,3066600,30666,"Public, 2-year",-84.607089,46.454584,Chippewa County,NA,NA,www.bmcc.edu,3600415,324884,0,NA,NA,NA,NA,1033379.28,555,NULL,555,4958678.3,8934.555495
Bay Path University,MA,164632,42103865,212200,212200,2122,"Private not-for-profit, 4-year or above",-72.583974,42.055364,Hampden County,NA,New England Collegiate Conference,www.baypath.edu,0,0,0,7285551,25069919,2859470,6682641,4602484.59,1584,1251,2835,46500065.6,16402.13954
Baylor College of Medicine,TX,223223,741613878,494900,494900,4949,"Private not-for-profit, 4-year or above",-95.395743,29.7106,Washington County,NA,NA,www.bcm.edu,62153475,230263056.2,8388550.12,0,12771382,0,3511110,NA,NULL,1572,1572,317087573.4,201709.6523
Baylor University,TX,223232,741159753,354500,354500,3545,"Private not-for-profit, 4-year or above",-97.119359,31.545956,Washington County,Big Twelve Conference,Big Twelve Conference,www.baylor.edu,3574471,9936019,817121.2,22095447,38556402,40156769,14955316,12281130.16,13859,2598,16457,142372675.4,8651.192526
BCI,MA,487782,465326273,4221500,NA,NA,"Private not-for-profit, less-than 2-year",-71.120116,42.333187,Norfolk County,NA,NA,NA,0,0,0,55463,40300,0,0,263693,NA,NA,NA,359456,NA
Be'er Yaakov Talmudic Seminary,NY,476717,131338360,4192800,NA,NA,"Private not-for-profit, 4-year or above",-74.028425,41.13905,Rockland County,NA,NA,NA,0,0,0,NA,NA,NA,NA,3965302.36,382,NULL,382,3965302.4,10380.37277
Beacon College,FL,384254,592961536,3373300,NA,NA,"Private not-for-profit, 4-year or above",-81.875619,28.810799,Lake County,NA,NA,NA,0,0,0,565676,604807,2345793,0,543130.5,223,NULL,223,4059406.5,18203.61659
Beaufort County Community College,NC,197966,560894923,855800,NA,NA,"Public, 2-year",-76.96535,35.533587,Beaufort County,NA,NA,NA,373140,0,0,NA,NA,NA,NA,1771601.91,2035,NULL,2035,2144741.9,1053.927224
Beaumont Adult School,CA,449357,911883328,3999300,NA,NA,"Public, less-than 2-year",-116.964728,33.951365,Riverside County,NA,NA,NA,0,0,0,200603,199525,6200,0,401014,143,NULL,143,807342,5645.748252
Becker College,MA,164720,42108346,212300,212300,2123,"Private not-for-profit, 4-year or above",-71.811895,42.26918,Worcester County,Eastern Collegiate Football Conference,New England Collegiate Conference,www.becker.edu,87218.75,0,0,5159223,5055559,9285182,13500,2874449.48,2021,5,2026,22475132.25,11093.35254
Beis Medrash Heichal Dovid,NY,444413,113599905,3713300,NA,NA,"Private not-for-profit, 4-year or above",-74.159642,41.33127,Orange County,NA,NA,NA,0,0,0,NA,NA,NA,NA,126059,93,20,113,126059,1115.566372
Belanger School of Nursing,NY,190956,141338428,644800,NA,NA,"Private not-for-profit, 2-year",-73.915884,42.802979,Schenectady County,NA,NA,NA,0,0,0,183756,290208,0,0,132896.56,131,NULL,131,606860.6,4632.523664
Belhaven University,MS,175421,640303069,239700,NA,NA,"Private not-for-profit, 4-year or above",-90.169228,32.318415,Hinds County,American Southwest Conference,American Southwest Conference,NA,0,0,0,6736712,34232337,2459696,394582,5569937.08,2566,1700,4266,49393264.1,11578.35539
Bellarmine University,KY,156286,610482955,195400,NA,NA,"Private not-for-profit, 4-year or above",-85.7049,38.219138,Jefferson County,NA,Great Lakes Valley Conference,NA,0,0,0,5881451,13402691,4053971,3787001,3005749.54,2585,1195,3780,30130863.5,7971.12791
Bellevue College,WA,234669,910819265,376900,376900,3769,"Public, 4-year or above",-122.149955,47.584778,King County,NA,NA,bellevuecollege.edu,572496,49509,0,1758192,2730895,21718,0,6756840.48,13469,NULL,13469,11889650.5,882.7418888
Bellevue University,NE,180814,470491571,974300,NA,NA,"Private not-for-profit, 4-year or above",-95.91764,41.150225,Sarpy County,NA,North Star Athletic Association,NA,0,0,0,11139814,39182181,939251,4985520,9015750,6291,3587,9878,65262516,6606.855234
Bellin College,WI,238324,391620530,663900,NA,NA,"Private not-for-profit, 4-year or above",-87.921722,44.468277,Brown County,NA,NA,NA,0,0,0,943314,1412722,348506,4000,275089,305,45,350,2983631,8524.66
Bellingham Technical College,WA,234696,911526618,499900,NA,NA,"Public, 4-year or above",-122.51216,48.766189,Whatcom County,NA,NA,NA,877761.43,649482,0,1751879,2349747,21800,0,5116952.04,2301,NULL,2301,10767621.43,4679.539952
Belmont Abbey College,NC,197984,560547498,291000,NA,NA,"Private not-for-profit, 4-year or above",-81.041315,35.260651,Gaston County,NA,Conference Carolinas,NA,0,0,0,3287619,3713035,4804529,0,2401521.38,1560,NULL,1560,14206704.4,9106.861795
Belmont College,OH,201283,310803587,994100,NA,NA,"Public, 2-year",-80.964901,40.07695,Belmont County,NA,NA,NA,0,0,0,466834,752901,0,0,1763594,1042,NULL,1042,2983329,2863.079655
Belmont University,TN,219709,620465076,347900,347900,3479,"Private not-for-profit, 4-year or above",-86.794715,36.133866,Davidson County,NA,Ohio Valley Conference,www.belmont.edu,0,0,0,9121353,31053510,35618570,18848720,4742403.45,5837,1367,7204,99384556.5,13795.74632
Beloit College,WI,238333,390808497,383500,383500,3835,"Private not-for-profit, 4-year or above",-89.03147,42.50363,Rock County,Midwest Conference,Midwest Conference,www.beloit.edu,682065,242136,0,2708191,2082592,1683460,0,1616661,1225,NULL,1225,9015105,7359.269388
Bemidji State University,MN,173124,416007162,233600,233600,2336,"Public, 4-year or above",-94.874529,47.482505,Beltrami County,Northern Sun Intercollegiate Conference,Northern Sun Intercollegiate Conference,www.bemidjistate.edu,1507681,301509,0,7802677,12168440,1120261,4147,6397174,4754,290,5044,29301889,5809.256344
Ben Franklin Career Center,WV,237172,550697112,1274300,NA,NA,"Public, less-than 2-year",-81.75353,38.367234,Kanawha County,NA,NA,NA,0,0,0,NA,NA,NA,NA,239519,435,NULL,435,239519,550.6183908
Benedict College,SC,217721,570314365,342000,342000,3420,"Private not-for-profit, 4-year or above",-81.021412,34.011285,Richland County,Southern Intercollegiate Athletic Conf,Southern Intercollegiate Athletic Conf,www.benedict.edu,5363272,649738,-288.75,6733092,7509543,7654120,0,8336431,2444,NULL,2444,36245907.25,14830.56761
Benedictine College,KS,154712,480777079,1025600,NA,NA,"Private not-for-profit, 4-year or above",-95.111424,39.572953,Atchison County,Heart of America Athletic Conference,Heart of America Athletic Conference,NA,0,0,0,3611137,3895026,5354699,0,1679150.14,2133,56,2189,14540012.1,6642.307949
Benedictine University,IL,145619,362722198,176700,176700,1767,"Private not-for-profit, 4-year or above",-88.095948,41.776395,Dupage County,Northern Athletics Collegiate Conference,Northern Athletics Collegiate Conference,www.ben.edu,-91474,0,0,7266184,27522372,6611813,1477808,5351602,3818,2607,6425,48138305,7492.343191
Benjamin Franklin Institute of Technology,MA,165884,42103576,215100,215100,2151,"Private not-for-profit, 4-year or above",-71.070231,42.346023,Suffolk County,NA,NA,www.bfit.edu/,449595,0,0,1318761,1298882,161894,0,1531475,510,NULL,510,4760607,9334.523529
Bennett College,NC,197993,560532296,291100,291100,2911,"Private not-for-profit, 4-year or above",-79.77998,36.067531,Guilford County,NA,NA,www.bennett.edu,4059326,0,0,1445851,1259348,1184592,0,1608548.42,633,NULL,633,9557665.4,15098.99747
Bennington College,VT,230816,30179414,368200,NA,NA,"Private not-for-profit, 4-year or above",-73.237799,42.919547,Bennington County,NA,NA,NA,78421,260953,10000,1398894,1318326,1117284,20962,757871,660,97,757,4962711,6555.760898
Bentley University,MA,164739,41081650,212400,212400,2124,"Private not-for-profit, 4-year or above",-71.220148,42.388798,Middlesex County,Northeast 10 Conference,Northeast 10 Conference,www.bentley.edu,384155.76,0,9190,7752015,9297804,6958787,438305,2666690,4264,1349,5613,27506946.76,4900.578436
Berea College,KY,156295,610444650,195500,195500,1955,"Private not-for-profit, 4-year or above",-84.289332,37.573334,Madison County,NA,Independent Southeast Region,www.berea.edu,43210709,0,0,308233,432665,0,0,7291917.04,1621,NULL,1621,51243524,31612.29118
Bergen Community College,NJ,183743,221820506,473600,NA,NA,"Public, 2-year",-74.094086,40.953733,Bergen County,NA,NA,NA,2235599,0,0,7688414,8542786,291251,0,20780723.03,15651,NULL,15651,39538773,2526.277746
Bergin University of Canine Studies,CA,461643,680259118,4176300,NA,NA,"Private not-for-profit, 4-year or above",-122.721175,38.353867,Sonoma County,NA,NA,NA,0,0,0,30716,105110,21420,0,45667,43,33,76,202913,2669.907895
Berkeley City College,CA,125170,941590799,2242700,NA,NA,"Public, 2-year",-122.269793,37.87047,Alameda County,NA,NA,NA,0,0,0,419466,517829,32080,0,5465365.18,6378,NULL,6378,6434740.2,1008.896237
Berklee College of Music,MA,164748,42300472,212600,212600,2126,"Private not-for-profit, 4-year or above",-71.08703,42.346895,Suffolk County,NA,NA,www.berklee.edu,25000,0,0,9345403,12363852,26425895,2118751,5592241,4743,177,4920,55871142,11355.92317
Berks Career & Technology Center,PA,481021,231658882,4041300,NA,NA,"Public, less-than 2-year",-76.000808,40.388341,Berks County,NA,NA,NA,0,0,0,27839,47585,0,0,48720,65,NULL,65,124144,1909.907692
Berkshire Community College,MA,164775,46002284,216700,216700,2167,"Public, 2-year",-73.318843,42.460877,Berkshire County,NA,NA,www.berkshirecc.edu,646757,0,0,1253130,1200738,16528,0,3159130.4,2230,NULL,2230,6276283.4,2814.476861
Berry College,GA,139144,580566133,155400,NA,NA,"Private not-for-profit, 4-year or above",-85.189202,34.290414,Floyd County,Southern Athletic Association,Southern Athletic Association,NA,0,784813,0,3185793,4058280,3674317,13076,1974082,2085,122,2207,13690361,6203.154055
Bet Medrash Gadol Ateret Torah,NY,485999,272128167,4227200,NA,NA,"Private not-for-profit, 4-year or above",-73.969945,40.607809,Kings County,NA,NA,NA,0,0,0,NA,NA,NA,NA,428045,118,NULL,118,428045,3627.5
Beth Hamedrash Shaarei Yosher Institute,NY,189273,116030154,1119200,NA,NA,"Private not-for-profit, 4-year or above",-73.981088,40.635503,Kings County,NA,NA,NA,0,0,0,NA,NA,NA,NA,177630,42,NULL,42,177630,4229.285714
Beth Hatalmud Rabbinical College,NY,189264,111811853,1192200,NA,NA,"Private not-for-profit, 4-year or above",-73.993039,40.605394,Kings County,NA,NA,NA,0,0,0,NA,NA,NA,NA,58968,29,NULL,29,58968,2033.37931
Beth Medrash Govoha,NJ,183804,210634542,794700,NA,NA,"Private not-for-profit, 4-year or above",-74.220777,40.095461,Ocean County,NA,NA,NA,0,0,0,NA,NA,NA,NA,10227471,2703,3832,6535,10227471,1565.029992
Beth Medrash Meor Yitzchok,NY,486196,260623550,4210400,NA,NA,"Private not-for-profit, 4-year or above",-74.060843,41.100906,Rockland County,NA,NA,NA,0,0,0,NA,NA,NA,NA,405810,166,NULL,166,405810,2444.638554
Beth Medrash of Asbury Park,NJ,488314,270694073,4251500,NA,NA,"Private not-for-profit, 4-year or above",-74.211131,40.04368,Ocean County,NA,NA,NA,0,0,0,NA,NA,NA,NA,188533,NA,NA,NA,188533,NA
Bethany College,KS,154721,480543734,190400,NA,NA,"Private not-for-profit, 4-year or above",-97.673173,38.5786,Mcpherson County,Kansas Collegiate Athletic Conf,Kansas Collegiate Athletic Conf,NA,0,0,0,2300225,1996834,1830335,0,1864029,717,NULL,717,7991423,11145.63877
Bethany College,WV,237181,550356985,380800,NA,NA,"Private not-for-profit, 4-year or above",-80.560056,40.205819,Brooke County,Presidents' Athletic Conference,Presidents' Athletic Conference,NA,0,0,0,1531652,1747816,1972418,0,1140410.99,727,27,754,6392297,8477.84748
Bethany Global University,MN,486284,416110005,4227800,NA,NA,"Private not-for-profit, 4-year or above",-93.371754,44.795501,Hennepin County,NA,NA,NA,0,0,0,500140,654413,112355,0,721700.49,115,24,139,1988608.5,14306.53597
Bethany Lutheran College,MN,173142,410747165,233700,NA,NA,"Private not-for-profit, 4-year or above",-93.990744,44.166485,Blue Earth County,NA,Upper Midwest Athletic Conference,NA,0,0,0,1250950,1006034,299234,0,793315,531,NULL,531,3349533,6307.971751
Bethany Theological Seminary,IN,143233,352092595,163700,NA,NA,"Private not-for-profit, 4-year or above",-84.9099,39.8265,Wayne County,NA,NA,NA,0,0,0,0,94347,0,0,NA,NULL,53,53,94347,1780.132075
Bethel College,VA,458113,541851377,4153800,NA,NA,"Private not-for-profit, 4-year or above",-76.409141,37.04095,Hampton City,NA,NA,NA,0,0,0,77515,103227,0,0,86497,57,NULL,57,267239,4688.403509
Bethel College-Indiana,IN,150145,350935587,178700,NA,NA,"Private not-for-profit, 4-year or above",-86.194686,41.678399,St. Joseph County,NA,Crossroads League,NA,0,0,0,3342370,4563858,1752177,0,2645350.17,1600,230,1830,12303755.2,6723.363497
Bethel College-North Newton,KS,154749,480543782,190500,NA,NA,"Private not-for-profit, 4-year or above",-97.342572,38.07525,Harvey County,Kansas Collegiate Athletic Conf,Kansas Collegiate Athletic Conf,NA,0,0,0,1237999,1320665,869162,0,918442,483,NULL,483,4346268,8998.484472
Bethel University,MN,173160,410708577,905800,905800,9058,"Private not-for-profit, 4-year or above",-93.159295,45.057091,Ramsey County,Minnesota Intercollegiate Ath Conf,Minnesota Intercollegiate Ath Conf,https://www.bethel.edu,0,71160,0,6648566,18268484,4399660,604286,3408200,3014,969,3983,33400356,8385.728345
Bethel University,TN,219718,620548913,348000,NA,NA,"Private not-for-profit, 4-year or above",-88.516162,36.139271,Carroll County,Mid-South Conference,TranSouth Athletic Conference,NA,0,0,0,9653986,26232182,1185344,2786188,10061881.9,4792,1588,6380,49919581.9,7824.385878
Bethesda University,CA,110060,953104298,3266300,NA,NA,"Private not-for-profit, 4-year or above",-117.941323,33.842295,Orange County,NA,NA,NA,0,0,0,273932,593059,4500,0,433963,269,85,354,1305454,3687.723164
Bethune-Cookman University,FL,132602,590704726,146700,146700,1467,"Private not-for-profit, 4-year or above",-81.031429,29.210193,Volusia County,Mid-Eastern Athletic Conference,Mid-Eastern Athletic Conference,www.cookman.edu,5207733,196110,0,14341820,15029727,15672244,51269,15476457,3899,152,4051,65975360,16286.19106
Beulah Heights University,GA,139153,586050244,3076300,NA,NA,"Private not-for-profit, 4-year or above",-84.358086,33.737022,Fulton County,NA,NA,NA,0,0,0,714713,2717650,0,144280,701008.25,454,214,668,4277651.2,6403.669461
Bevill State Community College,AL,102429,631102108,573300,573300,5733,"Public, 2-year",-87.265034,33.835785,Walker County,NA,NA,www.bscc.edu,3852020.7,0,0,NA,NA,NA,NA,7882867.12,3609,NULL,3609,11734887.8,3251.56215
Biblical Theological Seminary,PA,211130,231937954,2323000,NA,NA,"Private not-for-profit, 4-year or above",-75.303897,40.281414,Montgomery County,NA,NA,NA,0,0,0,0,928774,0,43439,NA,NULL,258,258,972213,3768.267442
Big Bend Community College,WA,234711,910826741,377000,377000,3770,"Public, 2-year",-119.318507,47.185083,NA,NA,NA,www.bigbend.edu/,3007851,0,0,678185,548597,258273,0,3482711.79,2016,NULL,2016,7975617.8,3956.159623
Big Sandy Community and Technical College,KY,157553,611320380,199600,199600,1996,"Public, 2-year",-82.77839,37.687585,Floyd County,NA,NA,www.bigsandy.kctcs.edu,0,0,0,2723957,2178585,2300,0,8516352,4638,NULL,4638,13421194,2893.746011
Birmingham Southern College,AL,100937,630708730,101200,101200,1012,"Private not-for-profit, 4-year or above",-86.850552,33.513774,Jefferson County,Southern Athletic Association,Southern Athletic Association,www.bsc.edu/,0,0,0,1969603,1987126,3428234,0,1336242.36,1185,NULL,1185,8721205.4,7359.667004
Birthingway College of Midwifery,OR,442949,931226663,3668300,NA,NA,"Private not-for-profit, 4-year or above",-122.538471,45.476809,Multnomah County,NA,NA,NA,0,0,0,150103,201926,0,0,100624,76,NULL,76,452653,5955.960526
Bishop State Community College,AL,102030,630507477,103000,103000,1030,"Public, 2-year",-88.056982,30.693972,Mobile County,NA,NA,www.bishop.edu,3675066.71,0,0,NA,NA,NA,NA,8797915.35,3320,NULL,3320,12472982.01,3756.922292
Bismarck State College,ND,200022,450343495,298800,298800,2988,"Public, 4-year or above",-100.816534,46.821459,Burleigh County,NA,NA,www.bismarckstate.edu,602559,0,0,2118411,4799045,73173,0,2633871,4002,NULL,4002,10227059,2555.487006
Black Hawk College,IL,143279,362482309,163800,NA,NA,"Public, 2-year",-90.449497,41.475983,Rock Island County,NA,NA,NA,355237,0,0,911152,1113877,92785,0,5260442,6307,NULL,6307,7733493,1226.176153
Black Hills State University,SD,219046,466000364,345900,345900,3459,"Public, 4-year or above",-103.870966,44.494889,Lawrence County,Rocky Mountain Athletic Conference,Rocky Mountain Athletic Conference,www.bhsu.edu,375873,95979,147882,5483484,7141994,913083,0,4648437.25,4020,499,4519,18806732.2,4161.702191
Black River Technical College,AR,106625,710416918,2052200,NA,NA,"Public, 2-year",-90.951033,36.239793,Randolph County,NA,NA,NA,0,0,0,1004230,871056,0,0,3874634,1963,NULL,1963,5749920,2929.149261
Blackburn College,IL,143288,370661491,163900,NA,NA,"Private not-for-profit, 4-year or above",-89.872248,39.288298,Macoupin County,NA,St. Louis Intercollegiate Ath Conf,NA,0,0,0,1398955,1015068,368146,0,1628308.06,585,NULL,585,4410477.1,7539.277094
Blackfeet Community College,MT,180054,810378943,2510600,2510600,25106,"Private not-for-profit, 2-year",-113.009387,48.551927,Glacier County,NA,NA,bfcc.edu,7088249,125000,0,NA,NA,NA,NA,1061469,495,NULL,495,8274718,16716.60202
Blackhawk Technical College,WI,238397,391104235,539000,NA,NA,"Public, 2-year",-89.016161,42.593217,Rock County,NA,NA,NA,-39657,0,0,2169001,1300661,8473,0,4026725,2471,NULL,2471,7465203,3021.126265
Blackstone Valley Vocational Regional School District,MA,457615,42317111,1218700,NA,NA,"Public, less-than 2-year",-71.617021,42.16283,Worcester County,NA,NA,NA,0,0,0,36100,60034,0,0,96891,49,NULL,49,193025,3939.285714
Bladen Community College,NC,198011,560894927,798700,NA,NA,"Public, 2-year",-78.731119,34.644691,Bladen County,NA,NA,NA,0,0,0,NA,NA,NA,NA,2666196.43,1334,NULL,1334,2666196.4,1998.647976
Blinn College,TX,223427,746000400,354900,NA,NA,"Public, 2-year",-96.409677,30.159713,Washington County,NA,NA,NA,0,0,126988.86,13596907,14734196,2967077,0,19921240.12,19479,NULL,19479,51346408.96,2635.987934
Bloomfield College,NJ,183822,221494428,259700,259700,2597,"Private not-for-profit, 4-year or above",-74.19593,40.794218,Essex County,NA,Central Atlantic Collegiate Conf,www.bloomfield.edu/,872496,242136,0,5473104,4832385,3837001,0,6648943.08,1969,2,1971,21906065.1,11114.18828
Bloomsburg University of Pennsylvania,PA,211158,232738930,331500,331500,3315,"Public, 4-year or above",-76.446383,41.007989,Columbia County,Pennsylvania State Athletic Conference,Pennsylvania State Athletic Conference,www.bloomu.edu,772506,129192,0,19553159,24732254,16898742,282647,12592463,9319,618,9937,74960963,7543.621113
Blue Hills Regional Technical School,MA,243799,42379358,552300,NA,NA,"Public, less-than 2-year",-71.103893,42.181648,Norfolk County,NA,NA,NA,0,0,0,97726,195725,6297,0,134562,61,NULL,61,434310,7119.836066
Blue Mountain College,MS,175430,640325640,239800,NA,NA,"Private not-for-profit, 4-year or above",-89.02924,34.67209,Tippah County,NA,Southern States Athletic Conference,NA,116173,0,0,704234,807039,151847,0,1435891.66,520,26,546,3215184.7,5888.616667
Blue Mountain Community College,OR,208275,930506536,318600,NA,NA,"Public, 2-year",-118.816944,45.677313,Umatilla County,NA,NA,NA,254904,0,0,659348,778120,10000,0,2482560.77,1731,NULL,1731,4184932.8,2417.638821
Blue Ridge Community College,NC,198039,560941830,968400,NA,NA,"Public, 2-year",-82.425544,35.30804,Henderson County,NA,NA,NA,94536,0,0,720187,1073904,3800,0,2557643.28,2215,NULL,2215,4450070.3,2009.061084
Blue Ridge Community College,VA,231536,541268283,681900,NA,NA,"Public, 2-year",-78.939038,38.279582,Augusta County,NA,NA,NA,0,0,0,1370805,1354695,114415,0,5107445,4388,NULL,4388,7947360,1811.157703
Bluefield College,VA,231554,540568200,370300,NA,NA,"Private not-for-profit, 4-year or above",-81.246233,37.244557,Tazewell County,Mid-South Conference,Mid-South Conference,NA,0,0,0,2591736,4658178,1170157,910929,2445920,928,17,945,11776920,12462.34921
Bluefield State College,WV,237215,556000751,380900,380900,3809,"Public, 4-year or above",-81.235428,37.26688,Mercer County,NA,Independent Southeast Region,www.bluefieldstate.edu,2764030,0,0,2402359,2795795,163903,0,3550690,1563,NULL,1563,11676777,7470.746641
Bluegrass Community and Technical College,KY,156392,611320380,524400,524400,5244,"Public, 2-year",-84.502338,38.024467,Fayette County,NA,NA,www.bluegrass.kctcs.edu/,1599703.74,0,0,7104478,7150482,494568,0,15953558.17,10952,NULL,10952,32302789.94,2949.487759
Bluffton University,OH,201371,344428207,301600,NA,NA,"Private not-for-profit, 4-year or above",-83.897678,40.896998,Allen County,Heartland Collegiate Athletic Conference,Heartland Collegiate Athletic Conference,NA,0,0,0,2087119,2308389,2460847,0,1319251,997,101,1098,8175606,7445.907104
Boise Bible College,ID,142090,820309302,2234500,NA,NA,"Private not-for-profit, 4-year or above",-116.290607,43.657437,Ada County,NA,NA,NA,0,0,0,175072,126374,51521,0,268640,173,NULL,173,621607,3593.104046
Boise State University,ID,142115,820290701,161600,161600,1616,"Public, 4-year or above",-116.205789,43.604403,Ada County,Mountain West Conference,Mountain West Conference,www.boisestate.edu,13726996.24,15395608.81,351609.59,25111100,43995472,10752275,493278,23061432.35,19351,2983,22334,132887772,5950.021135
Bon Secours Memorial College of Nursing,VA,233356,541744931,1004300,NA,NA,"Private not-for-profit, 4-year or above",-77.433191,37.646876,Henrico County,NA,NA,NA,0,0,0,1106606,1606881,116781,0,316262.69,487,NULL,487,3146530.7,6461.048665
Bon Secours St Mary's Hospital School of Medical Imaging,VA,233480,540793767,2358500,NA,NA,"Private not-for-profit, less-than 2-year",-77.433133,37.646799,Henrico County,NA,NA,NA,0,0,0,77272,87866,0,0,43155.86,31,NULL,31,208293.9,6719.158065
Boricua College,NY,189413,510175975,1302900,NA,NA,"Private not-for-profit, 4-year or above",-73.9458,40.833434,New York County,NA,NA,NA,0,0,0,599315,1665514,0,0,3134507.46,1104,70,1174,5399336.5,4599.094123
Bossier Parish Community College,LA,158431,721380259,2055400,2055400,20554,"Public, 2-year",-93.646881,32.539551,NA,NA,NA,www.bpcc.edu,-155086.62,0,0,11603603,15089751,223218,0,17134903,8580,NULL,8580,43896388.38,5116.129182
Boston Architectural College,MA,164872,42271070,396600,NA,NA,"Private not-for-profit, 4-year or above",-71.085851,42.34867,Suffolk County,NA,NA,NA,0,0,0,501227,3795572,465702,1110512,384074,470,380,850,6257087,7361.278824
Boston Baptist College,MA,164614,42970445,3248300,NA,NA,"Private not-for-profit, 4-year or above",-71.1103,42.254037,Suffolk County,NA,NA,NA,0,0,0,127406,129743,11000,0,110826,86,NULL,86,378975,4406.686047
Boston College,MA,164924,42103545,212800,212800,2128,"Private not-for-profit, 4-year or above",-71.171488,42.337688,Middlesex County,Atlantic Coast Conference,Atlantic Coast Conference,www.bc.edu,5323490,28852697.99,2672275.31,13798864,35359677,17439894,16173575,6295576,9704,4558,14262,125916049.3,8828.779225
Boston Graduate School of Psychoanalysis Inc,MA,164915,237410494,3194300,NA,NA,"Private not-for-profit, 4-year or above",-71.133025,42.339481,Norfolk County,NA,NA,NA,0,0,0,0,507403,0,284498,NA,NULL,143,143,791901,5537.769231
Boston University,MA,164988,42103547,213000,213000,2130,"Private not-for-profit, 4-year or above",-71.09984,42.349581,Suffolk County,NA,Patriot League,www.bu.edu,108227021,246551956.7,9487431.23,26677647,135127515,30683459,65840067,15371809,18017,14226,32243,637966906,19786.21425
Bowdoin College,ME,161004,10215213,203800,203800,2038,"Private not-for-profit, 4-year or above",-69.963942,43.907134,Cumberland County,New England Small College Ath Conf,New England Small College Ath Conf,www.bowdoin.edu/,1192682,2926289.16,0,919443,1012577,2942999,0,1366502.5,1805,NULL,1805,10360492.66,5739.88513
Bowie State University,MD,162007,526002033,206200,206200,2062,"Public, 4-year or above",-76.759721,39.018185,Prince George'S County,Central Intercollegiate Athletic Assoc,Central Intercollegiate Athletic Assoc,www.bowiestate.edu,7780519,1947445.74,0,10724816,19215430,10455891,623143,7144596,4456,1115,5571,57891840.74,10391.64257
Bowling Green State University-Main Campus,OH,201441,346402018,301800,301800,3018,"Public, 4-year or above",-83.637531,41.377036,Wood County,Mid-American Conference,Mid-American Conference,www.bgsu.edu,2062041.45,3968703.66,29296.58,30657703,47868109,34394475,339403,22281510,14099,2574,16673,141601241.7,8492.847219
Bradford-Union Technical Center,FL,132675,596000518,3382300,NA,NA,"Public, 2-year",-82.117224,29.952308,Bradford County,NA,NA,NA,0,0,0,NA,NA,NA,NA,353340.94,213,NULL,213,353340.9,1658.877465
Bradley University,IL,143358,370661494,164100,164100,1641,"Private not-for-profit, 4-year or above",-89.61462,40.697605,Peoria County,NA,Missouri Valley Conference,www.bradley.edu,0,-90052,0,10991029,23107136,14669704,1730713,5980101,4588,899,5487,56388631,10276.76891
Brandeis University,MA,165015,42103552,213300,213300,2133,"Private not-for-profit, 4-year or above",-71.254716,42.364947,Middlesex County,NA,University Athletic Association,www.brandeis.edu/,7033705.02,30814227.34,0,5729024,9356868,4683146,2666054,3053963,3715,2131,5846,63336987.36,10834.24348
Brandman University,CA,262086,260152908,4161800,NA,NA,"Private not-for-profit, 4-year or above",-117.769012,33.656401,Orange County,NA,NA,NA,0,0,0,11177933,61651679,331157,11086597,7668590.2,3990,4178,8168,91915956.2,11253.17779
Brazosport College,TX,223506,741587881,728700,NA,NA,"Public, 4-year or above",-95.409004,29.04836,Brazoria County,NA,NA,NA,0,0,0,153842,125753,0,0,3411218.34,4155,NULL,4155,3690813.3,888.2823827
Brenau University,GA,139199,580566143,155600,NA,NA,"Private not-for-profit, 4-year or above",-83.821513,34.303117,Hall County,NA,Southern States Athletic Conference,NA,0,0,0,5237533,24898844,1604076,7030621,4126098.04,1596,1311,2907,42897172,14756.50912
Brescia University,KY,156356,610660795,195800,195800,1958,"Private not-for-profit, 4-year or above",-87.111533,37.768989,Daviess County,NA,River States,www.brescia.edu,450000,0,0,2277249,3984195,940057,98058,2221545,972,18,990,9971104,10071.82222
Brevard College,NC,198066,560532297,291200,NA,NA,"Private not-for-profit, 4-year or above",-82.729763,35.237657,Transylvania County,South Atlantic Conference,South Atlantic Conference,NA,0,0,0,1564778,1289846,2241788,0,731423,705,NULL,705,5827835,8266.432624
Brewster Technical College,FL,367875,596000660,2601600,NA,NA,"Public, 2-year",-82.461722,27.96373,Hillsborough County,NA,NA,NA,4687574.34,0,0,NA,NA,NA,NA,558828.37,270,NULL,270,5246402.74,19431.12126
Brewton-Parker College,GA,139205,580619030,155700,NA,NA,"Private not-for-profit, 4-year or above",-82.586136,32.185718,Montgomery County,NA,Southern States Athletic Conference,NA,0,0,0,1283995,1240244,1089607,0,1547204.46,638,NULL,638,5161050.5,8089.420846
Briar Cliff University,IA,152992,420707124,184600,184600,1846,"Private not-for-profit, 4-year or above",-96.42696,42.526919,Woodbury County,Great Plains Athletic Conference,Great Plains Athletic Conference,www.briarcliff.edu,1208244.63,0,0,1885629,4374176,954045,2026295,1738917.36,1041,127,1168,12187307.03,10434.33821
Bridgerland Applied Technology College,UT,230010,870294483,2115400,NA,NA,"Public, 2-year",-111.850619,41.756188,Cache County,NA,NA,NA,0,225000,0,NA,NA,NA,NA,956110,1554,NULL,1554,1181110,760.045045
BridgeValley Community & Technical College,WV,484932,465109796,4038600,NA,NA,"Public, 2-year",-81.6983,38.353846,Kanawha County,NA,NA,NA,-997493.84,0,0,1463215,1504290,38642,0,3674409.43,2344,NULL,2344,5683062.56,2424.514744
Bridgewater College,VA,231581,540506306,370400,NA,NA,"Private not-for-profit, 4-year or above",-78.969011,38.378391,Rockingham County,Old Dominion Athletic Conference,Old Dominion Athletic Conference,NA,0,0,0,4377778,4706940,5810824,107386,2581227.72,1785,NULL,1785,17584155.7,9851.067619
Bridgewater State University,MA,165024,46002284,218300,NA,NA,"Public, 4-year or above",-70.974553,41.98749,Plymouth County,New England Football Conference,Massachusetts State College Ath Assoc,NA,149250,0,0,22054796,27050419,6881996,0,14948390,9628,1481,11109,71084851,6398.852372
Brigham Young University-Hawaii,HI,230047,990083825,160600,NA,NA,"Private not-for-profit, 4-year or above",-157.925358,21.641172,Honolulu County,NA,Pacific West Conference,NA,0,0,0,1484964,653194,169984,0,3874391.3,2787,NULL,2787,6182533.3,2218.347076
Brigham Young University-Idaho,ID,142522,820207699,162500,NA,NA,"Private not-for-profit, 4-year or above",-111.782431,43.818408,Madison County,NA,NA,NA,0,0,0,31630464,25762902,204973,0,75821100,36624,NULL,36624,133419439,3642.951043
Brigham Young University-Provo,UT,230038,870217280,367000,367000,3670,"Private not-for-profit, 4-year or above",-111.649281,40.250851,Utah County,Other,West Coast Conference,www.byu.edu,1974493.75,15135734.34,231542.2,15619605,23843227,587436,669984,60209103,27163,3248,30411,118271125.3,3889.090306
Brighton Center's Center for Employment Training,KY,442976,610673886,3611300,NA,NA,"Private not-for-profit, less-than 2-year",-84.490127,39.092551,Campbell County,NA,NA,NA,1016456,0,0,NA,NA,NA,NA,180571,172,NULL,172,1197027,6959.459302
Bristol Community College,MA,165033,46278794,217600,217600,2176,"Public, 2-year",-71.120263,41.721337,Bristol County,NA,NA,www.bristolcc.edu,1379496,0,0,3064247,4220759,6850,0,14342029.45,9189,NULL,9189,23013381.4,2504.44895
Bristol Technical Education Center,CT,431187,66000798,927700,NA,NA,"Public, less-than 2-year",-72.990101,41.69004,Hartford County,NA,NA,NA,0,0,0,NA,NA,NA,NA,42480,55,NULL,55,42480,772.3636364
Brookdale Community College,NJ,183859,221849485,840400,NA,NA,"Public, 2-year",-74.132746,40.324906,Monmouth County,NA,NA,NA,504443,649258,0,4912421,5801359,166711,0,11672871.25,14144,NULL,14144,23707063.2,1676.12155
Brookhaven College,TX,223524,751213149,2100200,NA,NA,"Public, 2-year",-96.85016,32.928237,Dallas County,NA,NA,NA,640722,224813,0,2503139,3042331,0,0,6490543.54,12403,NULL,12403,12901548.5,1040.195799
Brooklyn Law School,NY,189501,237227990,267700,NA,NA,"Private not-for-profit, 4-year or above",-73.990535,40.692662,Kings County,NA,NA,NA,0,0,0,0,13284029,0,12996350,NA,NULL,1175,1175,26280379,22366.28
Broome Delaware Tioga BOCES-Practical Nursing Program,NY,418010,156008639,2153600,NA,NA,"Public, less-than 2-year",-75.934739,42.129648,Broome County,NA,NA,NA,0,0,0,92549,189320,25010,0,168012.49,65,NULL,65,474891.5,7306.023077
Broward College,FL,132709,591216107,150000,150000,1500,"Public, 4-year or above",-80.14183,26.119422,Broward County,NA,NA,www.broward.edu,1748241.79,0,5250,18492722,2160442,138127,0,87085475.39,44119,NULL,44119,109630258.2,2484.876316
Brown University,RI,217156,50258809,340100,340100,3401,"Private not-for-profit, 4-year or above",-71.40385,41.82617,Providence County,Ivy Group,Ivy Group,www.brown.edu,13420082.68,133631668,4874517.69,4560668,16628242,8937625,5071399,4639006,6548,2806,9354,191763208.4,20500.66371
Brunswick Community College,NC,198084,561255943,2170700,NA,NA,"Public, 2-year",-78.22979,34.038973,Brunswick County,NA,NA,NA,0,0,0,NA,NA,NA,NA,2108122.48,1814,NULL,1814,2108122.5,1162.140298
Bryan College of Health Sciences,NE,180878,470376552,639900,NA,NA,"Private not-for-profit, 4-year or above",-96.651532,40.796768,Lancaster County,NA,NA,NA,215546,0,0,1355468,2548374,946155,644392,675983,617,90,707,6385918,9032.415842
Bryan College-Dayton,TN,219790,620528217,353600,NA,NA,"Private not-for-profit, 4-year or above",-84.999552,35.497209,Rhea County,NA,Appalachian Athletic Conference,NA,0,0,0,1575331,2143656,723207,0,1855166.59,1506,98,1604,6297360.6,3926.035287
Bryant University,RI,217165,50258810,340200,340200,3402,"Private not-for-profit, 4-year or above",-71.539547,41.920092,Providence County,Northeast Conference,Northeast Conference,www.bryant.edu,310310,54483,0,7041446,8449254,7849483,1638231,2077301,3320,211,3531,27420508,7765.649391
Bryn Athyn College of the New Church,PA,210492,231433899,322800,NA,NA,"Private not-for-profit, 4-year or above",-75.06093,40.131358,Montgomery County,NA,North Eastern Athletic Conference,NA,0,0,0,742099,617188,676870,0,580718.22,273,4,277,2616875.2,9447.202888
Bryn Mawr College,PA,211273,231352621,323700,323700,3237,"Private not-for-profit, 4-year or above",-75.314988,40.028541,Montgomery County,NA,Centennial Conference,www.brynmawr.edu,0,492584,0,2088560,3911813,2215761,306138,558604,1308,346,1654,9573460,5788.065296
Buckeye Hills Career Center,OH,201478,310794843,2073300,NA,NA,"Public, less-than 2-year",-82.388043,38.892181,Gallia County,NA,NA,NA,48616,0,0,199720,315361,0,0,434532.04,168,NULL,168,998229,5941.839286
Buckeye Joint Vocational School,OH,383312,341089502,3065900,NA,NA,"Public, less-than 2-year",-81.401957,40.470531,Tuscarawas County,NA,NA,NA,0,0,0,NA,NA,NA,NA,267091.7,95,NULL,95,267091.7,2811.491579
Bucknell University,PA,211291,240772407,323800,323800,3238,"Private not-for-profit, 4-year or above",-76.882616,40.954317,Union County,Patriot League,Patriot League,www.bucknell.edu,59900,2442254.76,0,4150301,3287835,7294847,0,1737354,3565,56,3621,18972491.76,5239.572428
Bucks County Community College,PA,211307,231646982,323900,323900,3239,"Public, 2-year",-74.965841,40.239102,Bucks County,NA,NA,www.bucks.edu/,10000,0,705933.2,2231987,3926272,72139,0,7818842,9155,NULL,9155,14765173.2,1612.79882
Buena Vista University,IA,153001,420680404,184700,NA,NA,"Private not-for-profit, 4-year or above",-95.208529,42.642255,Buena Vista County,Iowa Intercollegiate Athletic Conf,Iowa Intercollegiate Athletic Conf,NA,0,329633,0,5670270,8109888,1413162,3623,4373414.48,2035,346,2381,19899990.5,8357.828853
Bunker Hill Community College,MA,165112,46002284,1121000,1121000,11210,"Public, 2-year",-71.069263,42.374806,Suffolk County,NA,NA,www.bhcc.mass.edu,1154415.75,0,0,2294662,2321153,98001,0,23735564.19,14253,NULL,14253,29603795.95,2077.022097
Butler Community College,KS,154800,480690383,190600,190600,1906,"Public, 2-year",-96.882718,37.806377,Butler County,NA,NA,www.butlercc.edu/,78046.17,0,0,6708890,7229702,170797,0,10568264,9003,NULL,9003,24755699.17,2749.716669
Butler County Community College,PA,211343,251154027,324000,NA,NA,"Public, 2-year",-79.911433,40.829364,Butler County,NA,NA,NA,0,0,0,982682,1886366,101855,0,4755045.12,3636,NULL,3636,7725948.1,2124.848212
Butler Tech-D Russel Lee Career Center,OH,201496,310826922,2192100,NA,NA,"Public, less-than 2-year",-84.49281,39.408939,Butler County,NA,NA,NA,0,0,0,335171,668382,66593,0,543177.75,416,NULL,416,1613323.8,3878.182212
Butler University,IN,150163,350867974,178800,178800,1788,"Private not-for-profit, 4-year or above",-86.171791,39.840662,Marion County,Pioneer Football League,Big East Conference,www.butler.edu,510500.3,492570,0,7307041,14956691,13083303,4081339,2916225,4062,769,4831,43347669.3,8972.815007
Butte College,CA,110246,941637174,807300,807300,8073,"Public, 2-year",-121.644691,39.649116,Butte County,NA,NA,www.butte.edu,500699,0,0,2025070,2050960,142541,0,16832024.6,12157,NULL,12157,21551294.6,1772.747767
Butte County Regional Occupational Program,CA,487773,946002433,4220500,NA,NA,"Public, less-than 2-year",-121.804531,39.71598,Butte County,NA,NA,NA,0,0,0,66927,88968,0,0,161876.4,NA,NA,NA,317771.4,NA
Byzantine Catholic Seminary of Saints Cyril and Methodius,PA,444103,251141842,4118000,NA,NA,"Private not-for-profit, 4-year or above",-80.015825,40.484409,Allegheny County,NA,NA,NA,0,0,0,0,34500,0,0,NA,NULL,17,17,34500,2029.411765
CAAN Academy of Nursing,IL,487968,30486416,4242800,NA,NA,"Private not-for-profit, 2-year",-87.731631,41.50485,Cook County,NA,NA,NA,0,0,0,117439,234642,3451,0,184955,NA,NA,NA,540487,NA
Cabrillo College,CA,110334,946002633,112400,112400,1124,"Public, 2-year",-121.927926,36.9891,Santa Cruz County,NA,NA,www.cabrillo.edu,1781969,0,0,683768,829200,0,0,9690640.5,13594,NULL,13594,12985577.5,955.2433059
Cabrini University,PA,211352,231526668,324100,324100,3241,"Private not-for-profit, 4-year or above",-75.375263,40.056355,Delaware County,NA,Colonial States Athletic Conference,www.cabrini.edu,60169,85746,0,4166359,7224035,4317615,50505,3234493.84,1406,851,2257,19138922.8,8479.806292
Caddo Kiowa Technology Center,OK,364946,736021022,996300,NA,NA,"Public, less-than 2-year",-98.443443,35.108561,Caddo County,NA,NA,NA,0,0,16575,NA,NA,NA,NA,399177.56,237,NULL,237,415752.6,1754.23038
Cairn University-Langhorne,PA,215114,230973290,335100,NA,NA,"Private not-for-profit, 4-year or above",-74.909509,40.165809,Bucks County,NA,Division III Independents,NA,0,0,0,2083917,2872168,1092006,0,1609469,813,260,1073,7657560,7136.589003
Caldwell Community College and Technical Institute,NC,198118,560817481,483500,NA,NA,"Public, 2-year",-81.484148,35.854604,Caldwell County,NA,NA,NA,319570,0,0,NA,NA,NA,NA,4513629.52,3876,NULL,3876,4833199.5,1246.955495
Caldwell University,NJ,183910,221500483,259800,NA,NA,"Private not-for-profit, 4-year or above",-74.273697,40.834285,Essex County,NA,Central Atlantic Collegiate Conf,NA,299238,0,0,3279777,6810496,3408195,50197,3329006,1600,543,2143,17176909,8015.35651
California Baptist University,CA,110361,951890710,112500,112500,1125,"Private not-for-profit, 4-year or above",-117.42587,33.928569,Riverside County,NA,Pacific West Conference,www.calbaptist.edu,1125000,181696,0,23944743,58748458,21704758,10370016,17893796.16,6435,1911,8346,133968467.2,16051.8173
California Christian College,CA,110918,941576850,884400,NA,NA,"Private not-for-profit, 4-year or above",-119.711123,36.749366,Fresno County,NA,NA,NA,0,0,0,20449,12601,0,0,29966,18,NULL,18,63016,3500.888889
California College of the Arts,CA,110370,941156485,112700,NA,NA,"Private not-for-profit, 4-year or above",-122.399451,37.767485,San Francisco County,NA,NA,NA,25000,0,0,2147086,4814770,3672070,2541238,1668335.69,1542,455,1997,14868499.7,7445.417977
California College San Diego,CA,485263,228091013,2110800,NA,NA,"Private not-for-profit, 4-year or above",-117.166966,32.835221,San Diego County,NA,NA,NA,0,0,0,3465151,3599210,42943,0,4530441.55,912,NULL,912,11637745.5,12760.68586
California Institute of Integral Studies,CA,110316,942254303,1215400,NA,NA,"Private not-for-profit, 4-year or above",-122.416537,37.774768,San Francisco County,NA,NA,NA,0,0,0,346544,13798229,0,15737612,230377,104,963,1067,30112762,28221.89503
California Institute of Technology,CA,110404,951643307,113100,113100,1131,"Private not-for-profit, 4-year or above",-118.12574,34.139275,Los Angeles County,NA,Southern California Intercoll Ath Conf,www.caltech.edu,11303707.77,215883757.3,2711161177,48485,214899,578350,2167,618165,983,1254,2237,2939810708,1314175.551
California Institute of the Arts,CA,111081,956102146,113200,NA,NA,"Private not-for-profit, 4-year or above",-118.567303,34.393337,Los Angeles County,NA,NA,NA,40000,0,0,1949391,6244928,4928631,3508021,1253118,970,499,1469,17924089,12201.5582
California Jazz Conservatory,CA,486488,431983168,4237600,NA,NA,"Private not-for-profit, 4-year or above",-122.268878,37.871235,Alameda County,NA,NA,NA,0,0,0,52118,75028,38014,0,70888,68,NULL,68,236048,3471.294118
California Lutheran University,CA,110413,952962604,113300,113300,1133,"Private not-for-profit, 4-year or above",-118.879467,34.225551,Ventura County,Southern California Intercoll Ath Conf,Southern California Intercoll Ath Conf,www.callutheran.edu/,3954386.65,242134,0,7156853,17152485,10941489,1012562,2460537.76,2808,1316,4124,42920447.45,10407.47998
California Polytechnic State University-San Luis Obispo,CA,110422,946001347,114300,114300,1143,"Public, 4-year or above",-120.657311,35.299513,San Luis Obispo County,Big Sky Conference,Big West Conference,calpoly.edu,3842850.15,8103932.13,1248776,20172388,24006854,40911306,307265,17223030.49,19246,895,20141,115816401.8,5750.280611
California State Polytechnic University-Pomona,CA,110529,954255659,114400,114400,1144,"Public, 4-year or above",-117.819019,34.054273,Los Angeles County,NA,California Collegiate Athletic Assoc,www.cpp.edu,4697910.13,8156938.73,29279,35606266,37240401,6238598,304108,67597892.98,22395,1560,23955,159871393.9,6673.821493
California State University Maritime Academy,CA,111188,680316355,113400,113400,1134,"Public, 4-year or above",-122.231551,38.069061,Solano County,NA,California Pacific Conference,https://www.csum.edu,184000,115289,268484.74,1777478,2071213,2809576,0,1573530,1047,NULL,1047,8799570.74,8404.556581
California State University-Bakersfield,CA,110486,770314545,799300,799300,7993,"Public, 4-year or above",-119.104711,35.350005,Kern County,NA,Western Athletic Conference,www.csub.edu,5643840.36,1489001,35656.13,12838989,17512966,737176,32853,29301115.83,7635,1120,8755,67591597.29,7720.342352
California State University-Channel Islands,CA,441937,912153805,3980300,3980300,39803,"Public, 4-year or above",-119.04356,34.162949,Ventura County,NA,NA,www.csuci.edu,2595381.68,191606,0,11645161,9794039,7294165,4148,16507899.05,5677,227,5904,48032399.78,8135.569068
California State University-Chico,CA,110538,951230865,114600,114600,1146,"Public, 4-year or above",-121.844859,39.729712,Butte County,NA,California Collegiate Athletic Assoc,www.csuchico.edu,11304426.3,1464256,123609.6,30150043,21881000,4531460,55165,37850716.89,16081,1093,17174,107360676.8,6251.349528
California State University-Dominguez Hills,CA,110547,931043787,114100,114100,1141,"Public, 4-year or above",-118.259316,33.86524,Los Angeles County,NA,California Collegiate Athletic Assoc,www.csudh.edu,8184246.3,1366017,0,17358734,26869334,1263374,631691,40975010,12682,2015,14697,96648406.3,6576.063571
California State University-East Bay,CA,110574,946390556,113800,113800,1138,"Public, 4-year or above",-122.058073,37.65707,NA,NA,NA,www.csueastbay.edu,9750422,2225281.42,0,21614242,31370385,4540261,342730,35926338.07,12340,2470,14810,105769659.5,7141.773094
California State University-Fresno,CA,110556,946001347,114700,114700,1147,"Public, 4-year or above",-119.748258,36.814477,Fresno County,Mountain West Conference,Mountain West Conference,www.csufresno.edu,6013300.49,3199997.07,0,26625845,33774042,1230713,600711,66553648.74,20511,2654,23165,137998257.3,5957.187881
California State University-Fullerton,CA,110565,330632102,113700,113700,1137,"Public, 4-year or above",-117.885349,33.883627,Orange County,NA,Big West Conference,www.fullerton.edu,11368006.04,5446806.85,0,37993906,52481434,5816393,1245275,83068386.94,32726,5804,38530,197420207.8,5123.80503
California State University-Long Beach,CA,110583,931150363,113900,113900,1139,"Public, 4-year or above",-118.1123,33.782752,Los Angeles County,NA,Big West Conference,www.csulb.edu,14309947.95,5707501,31730,41765476,57758687,3289487,1314457,79832304.56,31643,5251,36894,204009590.6,5529.614315
California State University-Los Angeles,CA,110592,946001347,114000,114000,1140,"Public, 4-year or above",-118.168965,34.066927,Los Angeles County,NA,California Collegiate Athletic Assoc,www.calstatela.edu,6332062.44,8025254.63,0,29938316,42116532,604139,954623,84373248.89,20681,4222,24903,172344176,6920.619041
California State University-Monterey Bay,CA,409698,946001347,3260300,3260300,32603,"Public, 4-year or above",-121.799216,36.653724,Monterey County,NA,California Collegiate Athletic Assoc,www.csumb.edu,9368320.46,5844732,73561.84,11533581,9536952,2997349,121918,15909852.49,6231,454,6685,55386266.8,8285.155841
California State University-Northridge,CA,110608,946001347,115300,115300,1153,"Public, 4-year or above",-118.526817,34.23671,Los Angeles County,NA,Big West Conference,www.csun.edu,11638711.89,10578111.59,0,39054794,63811794,2174087,2491532,94164413.72,35616,4360,39976,223913444.2,5601.196823
California State University-Sacramento,CA,110617,680365325,115000,115000,1150,"Public, 4-year or above",-121.42194,38.55745,Sacramento County,Big Sky Conference,Big Sky Conference,www.csus.edu,8511462.52,6362293,12715.98,41019985,46415102,14511189,1081389,73054410.68,26739,2561,29300,190968547.2,6517.697857
California State University-San Bernardino,CA,110510,330644150,114200,114200,1142,"Public, 4-year or above",-117.322508,34.182987,San Bernardino County,NA,California Collegiate Athletic Assoc,www.csusb.edu,8331062.95,5498993.29,0,24123885,35237834,3696323,854964,56373166,16743,2262,19005,134116228.2,7056.891778
California State University-San Marcos,CA,366711,800390564,3011300,3011300,30113,"Public, 4-year or above",-117.158013,33.129115,San Diego County,NA,Association of Independent Institutions,www.csusm.edu,5462874.94,4848301,0,20341784,25911809,4241641,2700906,33192132,11559,609,12168,96699447.94,7947.028923
California State University-Stanislaus,CA,110495,770207337,115700,115700,1157,"Public, 4-year or above",-120.852511,37.52577,Stanislaus County,NA,California Collegiate Athletic Assoc,www.csustan.edu,1653067.71,2450375,5000,13349199,15146416,1862250,163718,27992369,7847,1183,9030,62622394.71,6934.927432
California University of Management and Sciences,CA,460075,330804576,4133100,NA,NA,"Private not-for-profit, 4-year or above",-117.941996,33.842052,Orange County,NA,NA,NA,0,0,0,0,43776,0,0,NA,51,481,532,43776,82.28571429
California University of Pennsylvania,PA,211361,251690694,331600,331600,3316,"Public, 4-year or above",-79.884477,40.066473,Washington County,Pennsylvania State Athletic Conference,Pennsylvania State Athletic Conference,www.calu.edu,2013985,0,0,13485992,34897696,7155197,1106873,10281850.35,6076,2069,8145,68941593.3,8464.284015
California Western School of Law,CA,111391,952944594,1310300,1310300,13103,"Private not-for-profit, 4-year or above",-117.162597,32.72194,San Diego County,NA,NA,https://www.cwsl.edu,0,0,0,0,14334084,0,18016476,NA,NULL,628,628,32350560,51513.63057
Calumet College of Saint Joseph,IN,150172,351087173,183400,NA,NA,"Private not-for-profit, 4-year or above",-87.492987,41.670925,Lake County,NA,Chicagoland Collegiate Athletic Conf,NA,0,0,0,1342806,3099638,519141,9285,1182476.05,881,219,1100,6153346.1,5593.951
Calvary University,MO,176789,436052681,245000,NA,NA,"Private not-for-profit, 4-year or above",-94.546238,38.838169,Cass County,NA,NA,NA,0,0,0,394468,548785,40714,0,487970.97,225,57,282,1471938,5219.638298
Calvin College,MI,169080,383071514,224100,224100,2241,"Private not-for-profit, 4-year or above",-85.587548,42.929916,Kent County,NA,Michigan Intercollegiate Athletic Assoc,www.calvin.edu,500762,1163595,0,6230601,4805809,3119293,0,3100425.34,3894,121,4015,18920485.3,4712.449639
Calvin Theological Seminary,MI,169099,383001876,224200,NA,NA,"Private not-for-profit, 4-year or above",-85.587354,42.92992,Kent County,NA,NA,NA,0,0,0,0,188263,0,0,NA,NULL,300,300,188263,627.5433333
Cambridge College,MA,165167,510163080,2182900,NA,NA,"Private not-for-profit, 4-year or above",-71.11084,42.369193,Middlesex County,NA,NA,NA,449395,0,0,2123141,19758071,24554,54643,1166370,1140,1591,2731,23576174,8632.798975
Camden County College,NJ,183938,221821290,686500,686500,6865,"Public, 2-year",-75.038381,39.784874,Camden County,NA,NA,www.camdencc.edu,0,0,5900,3680780,4131886,16448,0,9340229.32,12051,NULL,12051,17175243.3,1425.213119
Cameron University,OK,206914,736017987,315000,315000,3150,"Public, 4-year or above",-98.434163,34.606487,Comanche County,NA,Lone Star Conference,www.cameron.edu,1151899.45,0,0,5508914,8131007,186259,9158,9122029,5055,437,5492,24109266.45,4389.888283
Campbell University,NC,198136,560529940,291300,NA,NA,"Private not-for-profit, 4-year or above",-78.738238,35.409149,Harnett County,Pioneer Football League,Big South Conference,NA,331477,1321118,693258.78,8571085,53386462,16286328,32224147,7265766.63,4296,2029,6325,120079642.4,18984.9237
Campbellsville University,KY,156365,610469267,195900,195900,1959,"Private not-for-profit, 4-year or above",-85.348943,37.343342,Taylor County,Mid-South Conference,Mid-South Conference,www.campbellsville.edu,448109,0,0,5430859,15465172,1361542,82075,6525841.27,2992,431,3423,29313598.3,8563.715542
Canada College,CA,111434,943084147,697300,697300,6973,"Public, 2-year",-122.265549,37.447365,San Mateo County,NA,NA,canadacollege.edu,3034495,0,0,220463,238511,2500,0,2435373,6498,NULL,6498,5931342,912.7950139
Canadian Valley Technology Center,OK,365374,730778224,996500,NA,NA,"Public, less-than 2-year",-97.881967,35.509208,Canadian County,NA,NA,NA,0,0,69163.21,NA,NA,NA,NA,530423,1530,NULL,1530,599586.21,391.8864118
Canisius College,NY,189705,160743942,268100,268100,2681,"Private not-for-profit, 4-year or above",-78.851794,42.925319,Erie County,NA,Metro Atlantic Athletic Conference,WWW.Canisius.edu,475698,544643,0,4942249,13511641,3832727,582784,3269989.75,2868,1229,4097,27159731.8,6629.175445
Cankdeska Cikana Community College,ND,200208,450350756,2236500,2236500,22365,"Public, 2-year",-98.990801,47.978122,Benson County,NA,NA,www.littlehoop.edu,7482137.74,125000,0,NA,NA,NA,NA,647333.67,185,NULL,185,8254471.44,44618.76454
Cape Cod Community College,MA,165194,46002284,216800,216800,2168,"Public, 2-year",-70.337334,41.69192,Barnstable County,NA,NA,www.capecod.edu,1258192,0,0,693424,1079456,17643,0,3920485,3818,NULL,3818,6969200,1825.353588
Cape Fear Community College,NC,198154,560792881,532000,NA,NA,"Public, 2-year",-77.948985,34.240243,New Hanover County,NA,NA,NA,396518,0,0,2991897,3826305,394133,0,12064677.1,9056,NULL,9056,19673530.1,2172.430444
Cape Girardeau Career and Technology Center,MO,176798,436000601,553200,NA,NA,"Public, 2-year",-89.56525,37.274138,Cape Girardeau County,NA,NA,NA,0,0,0,312558,361925,0,0,516477.22,369,NULL,369,1190960.2,3227.534417
Capital Area School of Practical Nursing,IL,367972,370983047,1071000,NA,NA,"Public, less-than 2-year",-89.626262,39.718311,Sangamon County,NA,NA,NA,0,0,0,296655,584422,49784,0,541810,183,NULL,183,1472671,8047.382514
Capital University,OH,201548,314379435,302300,NA,NA,"Private not-for-profit, 4-year or above",-82.937867,39.954875,Franklin County,Ohio Athletic Conference,Ohio Athletic Conference,NA,0,0,0,6253229,14761937,6726469,4604107,3388122.4,2742,700,3442,35733864.4,10381.7154
Capitol Technology University,MD,162061,520805606,143600,143600,1436,"Private not-for-profit, 4-year or above",-76.851413,39.047047,Prince George'S County,NA,NA,www.captechu.edu,0,0,0,836084,2362705,1019307,177710,471211,417,387,804,4867017,6053.503731
Cardinal Stritch University,WI,238430,390806196,383700,NA,NA,"Private not-for-profit, 4-year or above",-87.909045,43.139752,Milwaukee County,NA,Chicagoland Collegiate Athletic Conf,NA,0,0,0,2688468,9771275,722240,93899,2286108,2308,1201,3509,15561990,4434.878883
Career and Technology Education Centers of Licking County,OH,418205,310793684,2220800,NA,NA,"Public, 2-year",-82.429175,40.099973,Licking County,NA,NA,NA,0,0,0,203935,301939,12494,0,426971,567,NULL,567,945339,1667.26455
Career Center of Southern Illinois,IL,417442,371216623,2117400,NA,NA,"Public, less-than 2-year",-89.948787,38.289727,Monroe County,NA,NA,NA,0,0,0,326939,514903,2030,0,535060.84,121,NULL,121,1378932.8,11396.13884
Career School of NY,NY,455220,134025667,4125600,NA,NA,"Private not-for-profit, less-than 2-year",-74.078168,40.641352,Richmond County,NA,NA,NA,0,0,0,77562,56736,4106,0,262155,117,NULL,117,400559,3423.581197
Career Technology Center of Lackawanna County,PA,246071,231709530,3098600,NA,NA,"Public, less-than 2-year",-75.652477,41.452849,Lackawanna County,NA,NA,NA,0,0,0,231186,305533,7800,0,307446,121,NULL,121,851965,7041.033058
Caribbean University-Bayamon,PR,241377,360277004,1252500,1252500,12525,"Private not-for-profit, 4-year or above",-66.168171,18.383209,NA,NA,NA,www.caribbean.edu,30000,0,0,2649725,4784884,0,0,11432926.74,1621,313,1934,18897535.7,9771.218046
Carl Albert State College,OK,206923,736017987,317600,317600,3176,"Public, 2-year",-94.63383,35.03821,Le Flore County,NA,NA,www.carlalbert.edu,2905168.76,0,0,1101429,848132,0,0,4746947.75,2241,NULL,2241,9601677.56,4284.550451
Carl Sandburg College,IL,143613,370896983,726500,726500,7265,"Public, 2-year",-90.408203,40.98128,Knox County,NA,NA,www.sandburg.edu,806203,0,0,347622,88685,124101,0,3768368.4,2200,NULL,2200,5134979.4,2334.081545
Carleton College,MN,173258,410694747,234000,234000,2340,"Private not-for-profit, 4-year or above",-93.154662,44.462304,Rice County,Midwest Conference,Midwest Conference,www.carleton.edu,362881,631392,0,1658804,1545048,1010035,0,1336739,2057,NULL,2057,6544899,3181.769081
Carlow University,PA,211431,250965438,330300,NA,NA,"Private not-for-profit, 4-year or above",-79.963927,40.439851,Allegheny County,NA,River States,NA,135000,0,0,4107317,14221785,2549354,971038,2694997.94,1345,873,2218,24679491.9,11126.91249
Carnegie Mellon University,PA,211440,250969449,324200,324200,3242,"Private not-for-profit, 4-year or above",-79.942914,40.444616,Allegheny County,University Athletic Association,University Athletic Association,www.cmu.edu/,20031220.15,126339174,137919564.3,8190346,20865947,7486319,15226850,4252559,5888,6914,12802,340311979.5,26582.71985
Carolina Christian College,NC,199971,566061483,3570300,NA,NA,"Private not-for-profit, 4-year or above",-80.256252,36.146168,Forsyth County,NA,NA,NA,0,0,0,185930,417537,0,0,223470,36,14,50,826937,16538.74
Carolina College of Biblical Studies,NC,461032,561388743,4154200,NA,NA,"Private not-for-profit, 4-year or above",-78.939514,35.05141,Cumberland County,NA,NA,NA,0,0,0,318622,465704,0,0,406154,111,NULL,111,1190480,10725.04505
Carolinas College of Health Sciences,NC,433174,560529945,3104200,NA,NA,"Public, 2-year",-80.838535,35.200295,Mecklenburg County,NA,NA,NA,0,0,0,519076,722497,83135,0,171644,486,NULL,486,1496352,3078.91358
Carrington College-Administrative Office,CA,485467,943166490,974800,NA,NA,Administrative Unit,-121.412967,38.551606,Sacramento County,NA,NA,NA,0,0,0,11163246,14635890,2217815,0,12222780,2284,NULL,2284,40239731,17618.09588
Carroll College,MT,180106,810231774,252600,NA,NA,"Private not-for-profit, 4-year or above",-112.04053,46.602202,Lewis And Clark County,Frontier Conference,Frontier Conference,NA,105898,0,0,2426367,2258124,3025599,0,1218089,1430,NULL,1430,9034077,6317.536364
Carroll Community College,MD,405872,521806923,3100700,NA,NA,"Public, 2-year",-76.991113,39.531805,Carroll County,NA,NA,NA,0,0,0,571868,1208584,27481,0,1973994.62,3645,NULL,3645,3781927.6,1037.565871
Carroll University,WI,238458,390806325,383800,383800,3838,"Private not-for-profit, 4-year or above",-88.227962,43.004647,Waukesha County,College Conference of Illinois and Wisc,College Conference of Illinois and Wisc,www.carrollu.edu,690024.14,1100000,0,6873685,10496937,4842267,1936051,2960721,3015,469,3484,28899685.14,8294.972773
Carson-Newman University,TN,219806,620479189,348100,348100,3481,"Private not-for-profit, 4-year or above",-83.492183,36.122224,Jefferson County,South Atlantic Conference,South Atlantic Conference,www.cn.edu,0,0,0,3809043,10004806,2627198,149368,3824042.4,1757,776,2533,20414457.4,8059.398895
